[{"name":"5th Dimension Young People's Group of AA","day":0,"time":"18:30","end_time":"19:30","district":"District 25","location":"Zoom","formatted_address":"Seattle, WA, USA","regions":["Seattle"],"types":["D","O"],"notes":"Zoom ID: 687118144  No Passcode","conference_url":"https:\/\/us04web.zoom.us\/j\/687118144","coordinates":"47.73528,-122.21982,47.48215,-122.45977","slug":"5th-dimension-young-peoples-group-of-aa","updated":"2026-02-23","region":"Seattle","edit_url":"https:\/\/docs.google.com\/spreadsheets\/d\/12PLbLuD88yY0CuMyjCOu56uNOBr-DyRd8630ses5PJQ\/edit#gid=0&range=2:2"},{"name":"5th Dimension Young People's Group of AA","day":1,"time":"18:30","end_time":"19:30","district":"District 25","location":"Zoom","formatted_address":"Seattle, WA, USA","regions":["Seattle"],"types":["D","O"],"notes":"Zoom ID: 687118144  No Passcode","conference_url":"https:\/\/us04web.zoom.us\/j\/687118144","coordinates":"47.73528,-122.21982,47.48215,-122.45977","slug":"5th-dimension-young-peoples-group-of-aa-1","updated":"2026-02-23","region":"Seattle","edit_url":"https:\/\/docs.google.com\/spreadsheets\/d\/12PLbLuD88yY0CuMyjCOu56uNOBr-DyRd8630ses5PJQ\/edit#gid=0&range=3:3"},{"name":"5th Dimension Young People's Group of AA","day":2,"time":"18:30","end_time":"19:30","district":"District 25","location":"Zoom","formatted_address":"Seattle, WA, USA","regions":["Seattle"],"types":["D","O"],"notes":"Zoom ID: 687118144  No Passcode","conference_url":"https:\/\/us04web.zoom.us\/j\/687118144","coordinates":"47.73528,-122.21982,47.48215,-122.45978","slug":"5th-dimension-young-peoples-group-of-aa-2","updated":"2026-02-23","region":"Seattle","edit_url":"https:\/\/docs.google.com\/spreadsheets\/d\/12PLbLuD88yY0CuMyjCOu56uNOBr-DyRd8630ses5PJQ\/edit#gid=0&range=4:4"},{"name":"5th Dimension Young People's Group of AA","day":3,"time":"18:30","end_time":"19:30","district":"District 25","location":"Zoom","formatted_address":"Seattle, WA, USA","regions":["Seattle"],"types":["D","O"],"notes":"Zoom ID: 687118144  No Passcode","conference_url":"https:\/\/us04web.zoom.us\/j\/687118144","coordinates":"47.73528,-122.21982,47.48215,-122.45979","slug":"5th-dimension-young-peoples-group-of-aa-3","updated":"2026-02-23","region":"Seattle","edit_url":"https:\/\/docs.google.com\/spreadsheets\/d\/12PLbLuD88yY0CuMyjCOu56uNOBr-DyRd8630ses5PJQ\/edit#gid=0&range=5:5"},{"name":"5th Dimension Young People's Group of AA","day":4,"time":"18:30","end_time":"19:30","district":"District 25","location":"Zoom","formatted_address":"Seattle, WA, USA","regions":["Seattle"],"types":["D","O"],"notes":"Zoom ID: 687118144  No Passcode","conference_url":"https:\/\/us04web.zoom.us\/j\/687118144","coordinates":"47.73528,-122.21982,47.48215,-122.45980","slug":"5th-dimension-young-peoples-group-of-aa-4","updated":"2026-02-23","region":"Seattle","edit_url":"https:\/\/docs.google.com\/spreadsheets\/d\/12PLbLuD88yY0CuMyjCOu56uNOBr-DyRd8630ses5PJQ\/edit#gid=0&range=6:6"},{"name":"5th Dimension Young People's Group of AA","day":5,"time":"18:30","end_time":"19:30","district":"District 25","location":"Zoom","formatted_address":"Seattle, WA, USA","regions":["Seattle"],"types":["D","O"],"notes":"Zoom ID: 687118144  No Passcode","conference_url":"https:\/\/us04web.zoom.us\/j\/687118144","coordinates":"47.73528,-122.21982,47.48215,-122.45981","slug":"5th-dimension-young-peoples-group-of-aa-5","updated":"2026-02-23","region":"Seattle","edit_url":"https:\/\/docs.google.com\/spreadsheets\/d\/12PLbLuD88yY0CuMyjCOu56uNOBr-DyRd8630ses5PJQ\/edit#gid=0&range=7:7"},{"name":"5th Dimension Young People's Group of AA","day":6,"time":"18:30","end_time":"19:30","district":"District 25","location":"Zoom","formatted_address":"Seattle, WA, USA","regions":["Seattle"],"types":["D","O"],"notes":"Zoom ID: 687118144  No Passcode","conference_url":"https:\/\/us04web.zoom.us\/j\/687118144","coordinates":"47.73528,-122.21982,47.48215,-122.45982","slug":"5th-dimension-young-peoples-group-of-aa-6","updated":"2026-02-23","region":"Seattle","edit_url":"https:\/\/docs.google.com\/spreadsheets\/d\/12PLbLuD88yY0CuMyjCOu56uNOBr-DyRd8630ses5PJQ\/edit#gid=0&range=8:8"},{"name":"530 2 Freedom","day":0,"time":"16:30","end_time":"17:30","district":"District 25","location":"Zoom","formatted_address":"Seattle, WA, USA","regions":["Seattle"],"types":["D","O"],"notes":"Zoom ID: 6093776070, Passcode: Daat2020","conference_url":"https:\/\/us04web.zoom.us\/j\/6093776070","coordinates":"47.73417,-122.22443,47.49191,-122.4597","slug":"530-2-freedom-1","updated":"2026-02-20","region":"Seattle","edit_url":"https:\/\/docs.google.com\/spreadsheets\/d\/12PLbLuD88yY0CuMyjCOu56uNOBr-DyRd8630ses5PJQ\/edit#gid=0&range=9:9"},{"name":"530 2 Freedom","day":1,"time":"16:30","end_time":"17:30","district":"District 25","location":"Zoom","formatted_address":"Seattle, WA, USA","regions":["Seattle"],"types":["SP"],"notes":"Zoom ID: 6093776070, Passcode: Daat2020","conference_url":"https:\/\/us04web.zoom.us\/j\/6093776070","coordinates":"39.91425,-104.6003,39.61443,-105.10993","slug":"530-2-freedom-2","updated":"2024-01-25","region":"Seattle","edit_url":"https:\/\/docs.google.com\/spreadsheets\/d\/12PLbLuD88yY0CuMyjCOu56uNOBr-DyRd8630ses5PJQ\/edit#gid=0&range=10:10"},{"name":"530 2 Freedom","day":2,"time":"16:30","end_time":"17:30","district":"District 25","location":"Zoom","formatted_address":"Seattle, WA, USA","regions":["Seattle"],"types":["D","O"],"notes":"Zoom ID: 6093776070, Passcode: Daat2020","conference_url":"https:\/\/us04web.zoom.us\/j\/6093776070","coordinates":"39.91425,-104.6003,39.61443,-105.10993","slug":"530-2-freedom-3","updated":"2026-02-20","region":"Seattle","edit_url":"https:\/\/docs.google.com\/spreadsheets\/d\/12PLbLuD88yY0CuMyjCOu56uNOBr-DyRd8630ses5PJQ\/edit#gid=0&range=11:11"},{"name":"530 2 Freedom","day":3,"time":"16:30","end_time":"17:30","district":"District 25","location":"Zoom","formatted_address":"Seattle, WA, USA","regions":["Seattle"],"types":["D","O"],"notes":"Zoom ID: 6093776070, Passcode: Daat2020","conference_url":"https:\/\/us04web.zoom.us\/j\/6093776070","coordinates":"39.91425,-104.6003,39.61443,-105.10993","slug":"530-2-freedom-4","updated":"2024-01-25","region":"Seattle","edit_url":"https:\/\/docs.google.com\/spreadsheets\/d\/12PLbLuD88yY0CuMyjCOu56uNOBr-DyRd8630ses5PJQ\/edit#gid=0&range=12:12"},{"name":"530 2 Freedom","day":4,"time":"16:30","end_time":"17:30","district":"District 25","location":"Zoom","formatted_address":"Seattle, WA, USA","regions":["Seattle"],"types":["D","O"],"notes":"Zoom ID: 6093776070, Passcode: Daat2020","conference_url":"https:\/\/us04web.zoom.us\/j\/6093776070","coordinates":"39.91425,-104.6003,39.61443,-105.10993","slug":"530-2-freedom-5","updated":"2026-02-23","region":"Seattle","edit_url":"https:\/\/docs.google.com\/spreadsheets\/d\/12PLbLuD88yY0CuMyjCOu56uNOBr-DyRd8630ses5PJQ\/edit#gid=0&range=13:13"},{"name":"530 2 Freedom","day":5,"time":"16:30","end_time":"17:30","district":"District 25","location":"Zoom","formatted_address":"Seattle, WA, USA","regions":["Seattle"],"types":["D","O"],"notes":"Zoom ID: 6093776070, Passcode: Daat2020","conference_url":"https:\/\/us04web.zoom.us\/j\/6093776070","coordinates":"39.91425,-104.6003,39.61443,-105.10993","slug":"530-2-freedom-6","updated":"2026-02-23","region":"Seattle","edit_url":"https:\/\/docs.google.com\/spreadsheets\/d\/12PLbLuD88yY0CuMyjCOu56uNOBr-DyRd8630ses5PJQ\/edit#gid=0&range=14:14"},{"name":"AA Beginner's Path","day":0,"time":"17:30","end_time":"18:30","district":"District 25","location":"Zoom","formatted_address":"Seattle, WA, USA","regions":["Seattle"],"types":["D","O"],"notes":"Zoom ID: 892 0285 8342, Passcode: 329599","conference_url":"https:\/\/us04web.zoom.us\/j\/89202858342","slug":"aa-beginners-path-1","updated":"2025-01-14","region":"Seattle","edit_url":"https:\/\/docs.google.com\/spreadsheets\/d\/12PLbLuD88yY0CuMyjCOu56uNOBr-DyRd8630ses5PJQ\/edit#gid=0&range=15:15"},{"name":"AA Beginner's Path","day":1,"time":"17:30","end_time":"18:30","district":"District 25","location":"Zoom","formatted_address":"Seattle, WA, USA","regions":["Seattle"],"types":["D","O"],"notes":"Zoom ID: 892 0285 8342, Passcode: 329599","conference_url":"https:\/\/us04web.zoom.us\/j\/89202858342","slug":"aa-beginners-path-2","updated":"2024-08-17","region":"Seattle","edit_url":"https:\/\/docs.google.com\/spreadsheets\/d\/12PLbLuD88yY0CuMyjCOu56uNOBr-DyRd8630ses5PJQ\/edit#gid=0&range=16:16"},{"name":"AA Beginner's Path","day":2,"time":"17:30","end_time":"18:30","district":"District 25","location":"Zoom","formatted_address":"Seattle, WA, USA","regions":["Seattle"],"types":["D","O"],"notes":"Zoom ID: 892 0285 8342, Passcode: 329599","conference_url":"https:\/\/us04web.zoom.us\/j\/89202858342","slug":"aa-beginners-path-3","updated":"2026-02-23","region":"Seattle","edit_url":"https:\/\/docs.google.com\/spreadsheets\/d\/12PLbLuD88yY0CuMyjCOu56uNOBr-DyRd8630ses5PJQ\/edit#gid=0&range=17:17"},{"name":"AA Beginner's Path","day":3,"time":"17:30","end_time":"18:30","district":"District 25","location":"Zoom","formatted_address":"Seattle, WA, USA","regions":["Seattle"],"types":["D","O"],"notes":"Zoom ID: 892 0285 8342, Passcode: 329599","conference_url":"https:\/\/us04web.zoom.us\/j\/89202858342","slug":"aa-beginners-path-4","updated":"2024-08-17","region":"Seattle","edit_url":"https:\/\/docs.google.com\/spreadsheets\/d\/12PLbLuD88yY0CuMyjCOu56uNOBr-DyRd8630ses5PJQ\/edit#gid=0&range=18:18"},{"name":"AA Beginner's Path","day":4,"time":"17:30","end_time":"18:30","district":"District 25","location":"Zoom","formatted_address":"Seattle, WA, USA","regions":["Seattle"],"types":["D","O"],"notes":"Zoom ID: 892 0285 8342, Passcode: 329599","conference_url":"https:\/\/us04web.zoom.us\/j\/89202858342","slug":"aa-beginners-path-5","updated":"2024-08-17","region":"Seattle","edit_url":"https:\/\/docs.google.com\/spreadsheets\/d\/12PLbLuD88yY0CuMyjCOu56uNOBr-DyRd8630ses5PJQ\/edit#gid=0&range=19:19"},{"name":"AA Beginner's Path","day":5,"time":"17:30","end_time":"18:30","district":"District 25","location":"Zoom","formatted_address":"Seattle, WA, USA","regions":["Seattle"],"types":["D","O"],"notes":"Zoom ID: 892 0285 8342, Passcode: 329599","conference_url":"https:\/\/us04web.zoom.us\/j\/89202858342","slug":"aa-beginners-path-6","updated":"2024-08-17","region":"Seattle","edit_url":"https:\/\/docs.google.com\/spreadsheets\/d\/12PLbLuD88yY0CuMyjCOu56uNOBr-DyRd8630ses5PJQ\/edit#gid=0&range=20:20"},{"name":"AA Beginner's Path","day":6,"time":"05:30","end_time":"18:30","district":"District 25","location":"Zoom","formatted_address":"Seattle, WA, USA","regions":["Seattle"],"types":["D","O"],"notes":"Zoom ID: 892 0285 8342, Passcode: 329599","conference_url":"https:\/\/us04web.zoom.us\/j\/89202858342","slug":"aa-beginners-path-7","updated":"2026-02-23","region":"Seattle","edit_url":"https:\/\/docs.google.com\/spreadsheets\/d\/12PLbLuD88yY0CuMyjCOu56uNOBr-DyRd8630ses5PJQ\/edit#gid=0&range=21:21"},{"name":"A.A. Meeting on-line","day":0,"time":"04:30","end_time":"05:30","district":"District 25","location":"Zoom","formatted_address":"Seattle, WA, USA","regions":["Seattle"],"types":["C","D"],"notes":"Zoom ID: 834 2400 2655 Passcode: 868106","conference_url":"https:\/\/us04web.zoom.us\/j\/83424002655","coordinates":"47.73417,-122.22443,47.49191,-122.4597","slug":"aa-meeting-on-line","updated":"2026-02-23","region":"Seattle","edit_url":"https:\/\/docs.google.com\/spreadsheets\/d\/12PLbLuD88yY0CuMyjCOu56uNOBr-DyRd8630ses5PJQ\/edit#gid=0&range=22:22"},{"name":"A.A. Meeting on-line","day":0,"time":"09:00","end_time":"10:00","district":"District 25","location":"Zoom","formatted_address":"Seattle, WA, USA","regions":["Seattle"],"types":["C","D"],"notes":"Zoom ID: 896 2694 0542   Passcode: 872280","conference_url":"https:\/\/us04web.zoom.us\/j\/89626940542","coordinates":"47.73417,-122.22443,47.49191,-122.4597","slug":"aa-meeting-on-line-2","updated":"2024-05-20","region":"Seattle","edit_url":"https:\/\/docs.google.com\/spreadsheets\/d\/12PLbLuD88yY0CuMyjCOu56uNOBr-DyRd8630ses5PJQ\/edit#gid=0&range=23:23"},{"name":"A.A. Meeting on-line","day":0,"time":"19:00","end_time":"20:00","district":"District 25","location":"Zoom","formatted_address":"Seattle, WA, USA","regions":["Seattle"],"types":["B"],"notes":"Zoom ID: 819 6495 8587 Passcode: 372658","conference_url":"https:\/\/us04web.zoom.us\/j\/81964958587","coordinates":"47.73417,-122.22443,47.49191,-122.4597","slug":"aa-meeting-on-line-3","updated":"2024-05-20","region":"Seattle","edit_url":"https:\/\/docs.google.com\/spreadsheets\/d\/12PLbLuD88yY0CuMyjCOu56uNOBr-DyRd8630ses5PJQ\/edit#gid=0&range=24:24"},{"name":"A.A. Meeting on-line","day":1,"time":"04:30","end_time":"05:30","district":"District 25","location":"Zoom","formatted_address":"Seattle, WA, USA","regions":["Seattle"],"types":["C","D"],"notes":"Zoom ID: 834 2400 2655 Passcode: 868106","conference_url":"https:\/\/us04web.zoom.us\/j\/83424002655","coordinates":"47.73417,-122.22443,47.49191,-122.4597","slug":"aa-meeting-on-line-4","updated":"2024-05-20","region":"Seattle","edit_url":"https:\/\/docs.google.com\/spreadsheets\/d\/12PLbLuD88yY0CuMyjCOu56uNOBr-DyRd8630ses5PJQ\/edit#gid=0&range=25:25"},{"name":"A.A. Meeting on-line","day":1,"time":"09:00","end_time":"10:00","district":"District 25","location":"Zoom","formatted_address":"Seattle, WA, USA","regions":["Seattle"],"types":["C","D"],"notes":"Zoom ID: 896 2694 0542   Passcode: 872280","conference_url":"https:\/\/us04web.zoom.us\/j\/89626940542","coordinates":"47.73417,-122.22443,47.49191,-122.4597","slug":"aa-meeting-on-line-5","updated":"2024-05-20","region":"Seattle","edit_url":"https:\/\/docs.google.com\/spreadsheets\/d\/12PLbLuD88yY0CuMyjCOu56uNOBr-DyRd8630ses5PJQ\/edit#gid=0&range=26:26"},{"name":"A.A. Meeting on-line","day":1,"time":"15:00","end_time":"16:00","district":"District 25","location":"Zoom","formatted_address":"Seattle, WA, USA","regions":["Seattle"],"types":["BE"],"notes":"Zoom ID: 880 8354 8845 Passcode: 442548","conference_url":"https:\/\/us04web.zoom.us\/j\/88083548845","coordinates":"47.73417,-122.22443,47.49191,-122.4597","slug":"aa-meeting-on-line-6","updated":"2024-05-20","region":"Seattle","edit_url":"https:\/\/docs.google.com\/spreadsheets\/d\/12PLbLuD88yY0CuMyjCOu56uNOBr-DyRd8630ses5PJQ\/edit#gid=0&range=27:27"},{"name":"A.A. Meeting on-line","day":1,"time":"19:00","end_time":"20:00","district":"District 25","location":"Zoom","formatted_address":"Seattle, WA, USA","regions":["Seattle"],"types":["C","D"],"notes":"Zoom ID: 819 6495 8587 Passcode: 372658","conference_url":"https:\/\/us04web.zoom.us\/j\/81964958587","coordinates":"47.73417,-122.22443,47.49191,-122.4597","slug":"aa-meeting-on-line-7","updated":"2024-05-20","region":"Seattle","edit_url":"https:\/\/docs.google.com\/spreadsheets\/d\/12PLbLuD88yY0CuMyjCOu56uNOBr-DyRd8630ses5PJQ\/edit#gid=0&range=28:28"},{"name":"A.A. Meeting on-line","day":2,"time":"04:30","end_time":"05:30","district":"District 25","location":"Zoom","formatted_address":"Seattle, WA, USA","regions":["Seattle"],"types":["C","D"],"notes":"Zoom ID: 834 2400 2655 Passcode: 868106","conference_url":"https:\/\/us04web.zoom.us\/j\/83424002655","coordinates":"47.73417,-122.22443,47.49191,-122.4597","slug":"aa-meeting-on-line-8","updated":"2024-05-20","region":"Seattle","edit_url":"https:\/\/docs.google.com\/spreadsheets\/d\/12PLbLuD88yY0CuMyjCOu56uNOBr-DyRd8630ses5PJQ\/edit#gid=0&range=29:29"},{"name":"A.A. Meeting on-line","day":2,"time":"09:00","end_time":"10:00","district":"District 25","location":"Zoom","formatted_address":"Seattle, WA, USA","regions":["Seattle"],"types":["C","D"],"notes":"Zoom ID: 896 2694 0542   Passcode: 872280","conference_url":"https:\/\/us04web.zoom.us\/j\/89626940542","coordinates":"47.73417,-122.22443,47.49191,-122.4597","slug":"aa-meeting-on-line-9","updated":"2024-05-20","region":"Seattle","edit_url":"https:\/\/docs.google.com\/spreadsheets\/d\/12PLbLuD88yY0CuMyjCOu56uNOBr-DyRd8630ses5PJQ\/edit#gid=0&range=30:30"},{"name":"A.A. Meeting on-line","day":2,"time":"19:00","end_time":"20:00","district":"District 25","location":"Zoom","formatted_address":"Seattle, WA, USA","regions":["Seattle"],"types":["C","D"],"notes":"Zoom ID: 819 6495 8587 Passcode: 372658","conference_url":"https:\/\/us04web.zoom.us\/j\/81964958587","coordinates":"47.73417,-122.22443,47.49191,-122.4597","slug":"aa-meeting-on-line-10","updated":"2024-05-20","region":"Seattle","edit_url":"https:\/\/docs.google.com\/spreadsheets\/d\/12PLbLuD88yY0CuMyjCOu56uNOBr-DyRd8630ses5PJQ\/edit#gid=0&range=31:31"},{"name":"A.A. Meeting on-line","day":3,"time":"04:30","end_time":"05:30","district":"District 25","location":"Zoom","formatted_address":"Seattle, WA, USA","regions":["Seattle"],"types":["C","D"],"notes":"Zoom ID: 834 2400 2655 Passcode: 868106","conference_url":"https:\/\/us04web.zoom.us\/j\/83424002655","coordinates":"47.73417,-122.22443,47.49191,-122.4597","slug":"aa-meeting-on-line-11","updated":"2024-05-20","region":"Seattle","edit_url":"https:\/\/docs.google.com\/spreadsheets\/d\/12PLbLuD88yY0CuMyjCOu56uNOBr-DyRd8630ses5PJQ\/edit#gid=0&range=32:32"},{"name":"A.A. Meeting on-line","day":3,"time":"09:00","end_time":"10:00","district":"District 25","location":"Zoom","formatted_address":"Seattle, WA, USA","regions":["Seattle"],"types":["C","D"],"notes":"Zoom ID: 896 2694 0542   Passcode: 872280","conference_url":"https:\/\/us04web.zoom.us\/j\/89626940542","coordinates":"47.73417,-122.22443,47.49191,-122.4597","slug":"aa-meeting-on-line-12","updated":"2024-05-20","region":"Seattle","edit_url":"https:\/\/docs.google.com\/spreadsheets\/d\/12PLbLuD88yY0CuMyjCOu56uNOBr-DyRd8630ses5PJQ\/edit#gid=0&range=33:33"},{"name":"A.A. Meeting on-line","day":3,"time":"16:00","end_time":"16:00","district":"District 25","location":"Zoom","formatted_address":"Seattle, WA, USA","regions":["Seattle"],"types":["B"],"notes":"Zoom ID: 899 9666 9552 Passcode: 542388","conference_url":"https:\/\/us04web.zoom.us\/j\/89996669552","coordinates":"47.73417,-122.22443,47.49191,-122.4597","slug":"aa-meeting-on-line-13","updated":"2024-05-20","region":"Seattle","edit_url":"https:\/\/docs.google.com\/spreadsheets\/d\/12PLbLuD88yY0CuMyjCOu56uNOBr-DyRd8630ses5PJQ\/edit#gid=0&range=34:34"},{"name":"A.A. Meeting on-line","day":3,"time":"19:00","end_time":"20:00","district":"District 25","location":"Zoom","formatted_address":"Seattle, WA, USA","regions":["Seattle"],"types":["C","D"],"notes":"Zoom ID: 819 6495 8587 Passcode: 372658","conference_url":"https:\/\/us04web.zoom.us\/j\/81964958587","coordinates":"47.73417,-122.22443,47.49191,-122.4597","slug":"aa-meeting-on-line-14","updated":"2024-05-20","region":"Seattle","edit_url":"https:\/\/docs.google.com\/spreadsheets\/d\/12PLbLuD88yY0CuMyjCOu56uNOBr-DyRd8630ses5PJQ\/edit#gid=0&range=35:35"},{"name":"A.A. Meeting on-line","day":4,"time":"04:30","end_time":"05:30","district":"District 25","location":"Zoom","formatted_address":"Seattle, WA, USA","regions":["Seattle"],"types":["C","D"],"notes":"Zoom ID: 834 2400 2655 Passcode: 868106","conference_url":"https:\/\/us04web.zoom.us\/j\/83424002655","coordinates":"47.73417,-122.22443,47.49191,-122.4597","slug":"aa-meeting-on-line-15","updated":"2024-05-20","region":"Seattle","edit_url":"https:\/\/docs.google.com\/spreadsheets\/d\/12PLbLuD88yY0CuMyjCOu56uNOBr-DyRd8630ses5PJQ\/edit#gid=0&range=36:36"},{"name":"A.A. Meeting on-line","day":4,"time":"09:00","end_time":"10:00","district":"District 25","location":"Zoom","formatted_address":"Seattle, WA, USA","regions":["Seattle"],"types":["C","D"],"notes":"Zoom ID: 896 2694 0542   Passcode: 872280","conference_url":"https:\/\/us04web.zoom.us\/j\/89626940542","coordinates":"47.73417,-122.22443,47.49191,-122.4597","slug":"aa-meeting-on-line-16","updated":"2024-05-20","region":"Seattle","edit_url":"https:\/\/docs.google.com\/spreadsheets\/d\/12PLbLuD88yY0CuMyjCOu56uNOBr-DyRd8630ses5PJQ\/edit#gid=0&range=37:37"},{"name":"A.A. Meeting on-line","day":4,"time":"16:00","end_time":"16:00","district":"District 25","location":"Zoom","formatted_address":"Seattle, WA, USA","regions":["Seattle"],"types":["12x12"],"notes":"Zoom ID: 827 2566 0551 Passcode: 267453","conference_url":"https:\/\/us04web.zoom.us\/j\/82725660551","coordinates":"47.73417,-122.22443,47.49191,-122.4597","slug":"aa-meeting-on-line-17","updated":"2024-05-20","region":"Seattle","edit_url":"https:\/\/docs.google.com\/spreadsheets\/d\/12PLbLuD88yY0CuMyjCOu56uNOBr-DyRd8630ses5PJQ\/edit#gid=0&range=38:38"},{"name":"A.A. Meeting on-line","day":4,"time":"19:00","end_time":"20:00","district":"District 25","location":"Zoom","formatted_address":"Seattle, WA, USA","regions":["Seattle"],"types":["C","D"],"notes":"Zoom ID: 819 6495 8587 Passcode: 372658","conference_url":"https:\/\/us04web.zoom.us\/j\/81964958587","coordinates":"47.73417,-122.22443,47.49191,-122.4597","slug":"aa-meeting-on-line-18","updated":"2024-05-20","region":"Seattle","edit_url":"https:\/\/docs.google.com\/spreadsheets\/d\/12PLbLuD88yY0CuMyjCOu56uNOBr-DyRd8630ses5PJQ\/edit#gid=0&range=39:39"},{"name":"A.A. Meeting on-line","day":5,"time":"04:30","end_time":"05:30","district":"District 25","location":"Zoom","formatted_address":"Seattle, WA, USA","regions":["Seattle"],"types":["C","D"],"notes":"Zoom ID: 834 2400 2655 Passcode: 868106","conference_url":"https:\/\/us04web.zoom.us\/j\/83424002655","coordinates":"47.73417,-122.22443,47.49191,-122.4597","slug":"aa-meeting-on-line-19","updated":"2024-05-20","region":"Seattle","edit_url":"https:\/\/docs.google.com\/spreadsheets\/d\/12PLbLuD88yY0CuMyjCOu56uNOBr-DyRd8630ses5PJQ\/edit#gid=0&range=40:40"},{"name":"A.A. Meeting on-line","day":5,"time":"09:00","end_time":"10:00","district":"District 25","location":"Zoom","formatted_address":"Seattle, WA, USA","regions":["Seattle"],"types":["C","D"],"notes":"Zoom ID: 896 2694 0542   Passcode: 872280","conference_url":"https:\/\/us04web.zoom.us\/j\/89626940542","coordinates":"47.73417,-122.22443,47.49191,-122.4597","slug":"aa-meeting-on-line-20","updated":"2024-05-20","region":"Seattle","edit_url":"https:\/\/docs.google.com\/spreadsheets\/d\/12PLbLuD88yY0CuMyjCOu56uNOBr-DyRd8630ses5PJQ\/edit#gid=0&range=41:41"},{"name":"A.A. Meeting on-line","day":5,"time":"16:00","end_time":"16:00","district":"District 25","location":"Zoom","formatted_address":"Seattle, WA, USA","regions":["Seattle"],"types":["LS"],"notes":"Zoom ID: 854 3156 6178 Passcode: 226722","conference_url":"https:\/\/us04web.zoom.us\/j\/85431566178","coordinates":"47.73417,-122.22443,47.49191,-122.4597","slug":"aa-meeting-on-line-21","updated":"2024-05-20","region":"Seattle","edit_url":"https:\/\/docs.google.com\/spreadsheets\/d\/12PLbLuD88yY0CuMyjCOu56uNOBr-DyRd8630ses5PJQ\/edit#gid=0&range=42:42"},{"name":"A.A. Meeting on-line","day":5,"time":"19:00","end_time":"20:00","district":"District 25","location":"Zoom","formatted_address":"Seattle, WA, USA","regions":["Seattle"],"types":["C","D"],"notes":"Zoom ID: 819 6495 8587 Passcode: 372658","conference_url":"https:\/\/us04web.zoom.us\/j\/81964958587","coordinates":"47.73417,-122.22443,47.49191,-122.4597","slug":"aa-meeting-on-line-22","updated":"2024-05-20","region":"Seattle","edit_url":"https:\/\/docs.google.com\/spreadsheets\/d\/12PLbLuD88yY0CuMyjCOu56uNOBr-DyRd8630ses5PJQ\/edit#gid=0&range=43:43"},{"name":"A.A. Meeting on-line","day":6,"time":"04:30","end_time":"05:30","district":"District 25","location":"Zoom","formatted_address":"Seattle, WA, USA","regions":["Seattle"],"types":["C","D"],"notes":"Zoom ID: 834 2400 2655 Passcode: 868106","conference_url":"https:\/\/us04web.zoom.us\/j\/83424002655","coordinates":"47.73417,-122.22443,47.49191,-122.4597","slug":"aa-meeting-on-line-23","updated":"2024-05-20","region":"Seattle","edit_url":"https:\/\/docs.google.com\/spreadsheets\/d\/12PLbLuD88yY0CuMyjCOu56uNOBr-DyRd8630ses5PJQ\/edit#gid=0&range=44:44"},{"name":"A.A. Meeting on-line","day":6,"time":"09:00","end_time":"10:00","district":"District 25","location":"Zoom","formatted_address":"Seattle, WA, USA","regions":["Seattle"],"types":["C","D"],"notes":"Zoom ID: 896 2694 0542   Passcode: 872280","conference_url":"https:\/\/us04web.zoom.us\/j\/89626940542","coordinates":"47.73417,-122.22443,47.49191,-122.4597","slug":"aa-meeting-on-line-24","updated":"2024-05-20","region":"Seattle","edit_url":"https:\/\/docs.google.com\/spreadsheets\/d\/12PLbLuD88yY0CuMyjCOu56uNOBr-DyRd8630ses5PJQ\/edit#gid=0&range=45:45"},{"name":"A.A. Meeting on-line","day":6,"time":"19:00","end_time":"20:00","district":"District 25","location":"Zoom","formatted_address":"Seattle, WA, USA","regions":["Seattle"],"types":["C","D"],"notes":"Zoom ID: 819 6495 8587, Passcode: 372658","conference_url":"https:\/\/us04web.zoom.us\/j\/81964958587","coordinates":"47.73417,-122.22443,47.49191,-122.4597","slug":"aa-meeting-on-line-25","updated":"2026-01-26","region":"Seattle","edit_url":"https:\/\/docs.google.com\/spreadsheets\/d\/12PLbLuD88yY0CuMyjCOu56uNOBr-DyRd8630ses5PJQ\/edit#gid=0&range=46:46"},{"name":"Agnostics in Progress","day":2,"time":"12:00","end_time":"13:00","district":"District 25","location":"Zoom","formatted_address":"Bellevue, WA, USA","regions":["Bellevue"],"types":["C","D"],"notes":"Zoom ID: 89222453746, Passcode: 109242","conference_url":"https:\/\/eastsideaa-org.zoom.us\/j\/89222453746?pwd=3s1RTX05h0emKbbKrOgZy1zQb6aI1D.1","coordinates":"47.6607,-122.07933,47.53461,-122.22293","slug":"agnostics-in-progress","updated":"2025-11-19","region":"Bellevue","edit_url":"https:\/\/docs.google.com\/spreadsheets\/d\/12PLbLuD88yY0CuMyjCOu56uNOBr-DyRd8630ses5PJQ\/edit#gid=0&range=47:47"},{"name":"Any-Lengths","day":0,"time":"12:00","end_time":"13:00","district":"District 25","location":"Zoom","formatted_address":"Seattle, WA, USA","regions":["Seattle"],"types":["C","D"],"notes":"Zoom ID: 166876977","conference_url":"https:\/\/us02web.zoom.us\/j\/642157545?pwd=dEtjclQyVko4MGJueVpCTHNZQnB6QT09","coordinates":"47.73417,-122.22443,47.49191,-122.4597","slug":"any-lengths-1","updated":"2025-11-19","region":"Seattle","edit_url":"https:\/\/docs.google.com\/spreadsheets\/d\/12PLbLuD88yY0CuMyjCOu56uNOBr-DyRd8630ses5PJQ\/edit#gid=0&range=48:48"},{"name":"Any-Lengths","day":1,"time":"12:00","end_time":"13:00","district":"District 25","location":"Zoom","formatted_address":"Seattle, WA, USA","regions":["Seattle"],"types":["C","DR"],"notes":"Zoom ID: 166876977","conference_url":"https:\/\/us02web.zoom.us\/j\/642157545?pwd=dEtjclQyVko4MGJueVpCTHNZQnB6QT09","coordinates":"47.73417,-122.22443,47.49191,-122.4597","slug":"any-lengths-2","updated":"2025-11-19","region":"Seattle","edit_url":"https:\/\/docs.google.com\/spreadsheets\/d\/12PLbLuD88yY0CuMyjCOu56uNOBr-DyRd8630ses5PJQ\/edit#gid=0&range=49:49"},{"name":"Any-Lengths","day":2,"time":"12:00","end_time":"13:00","district":"District 25","location":"Zoom","formatted_address":"Seattle, WA, USA","regions":["Seattle"],"types":["ABSI","C"],"notes":"Zoom ID: 166876977","conference_url":"https:\/\/us02web.zoom.us\/j\/642157545?pwd=dEtjclQyVko4MGJueVpCTHNZQnB6QT09","coordinates":"47.73417,-122.22443,47.49191,-122.4597","slug":"any-lengths-3","updated":"2026-01-26","region":"Seattle","edit_url":"https:\/\/docs.google.com\/spreadsheets\/d\/12PLbLuD88yY0CuMyjCOu56uNOBr-DyRd8630ses5PJQ\/edit#gid=0&range=50:50"},{"name":"Any-Lengths","day":3,"time":"12:00","end_time":"13:00","district":"District 25","location":"Zoom","formatted_address":"Seattle, WA, USA","regions":["Seattle"],"types":["C","D"],"notes":"Zoom ID: 166876977","conference_url":"https:\/\/us02web.zoom.us\/j\/642157545?pwd=dEtjclQyVko4MGJueVpCTHNZQnB6QT09","coordinates":"47.73417,-122.22443,47.49191,-122.4597","slug":"any-lengths-4","updated":"2025-11-19","region":"Seattle","edit_url":"https:\/\/docs.google.com\/spreadsheets\/d\/12PLbLuD88yY0CuMyjCOu56uNOBr-DyRd8630ses5PJQ\/edit#gid=0&range=51:51"},{"name":"Any-Lengths","day":4,"time":"12:00","end_time":"13:00","district":"District 25","location":"Zoom","formatted_address":"Seattle, WA, USA","regions":["Seattle"],"types":["C","D"],"notes":"Zoom ID: 166876977","conference_url":"https:\/\/us02web.zoom.us\/j\/642157545?pwd=dEtjclQyVko4MGJueVpCTHNZQnB6QT09","coordinates":"47.73417,-122.22443,47.49191,-122.4597","slug":"any-lengths-5","updated":"2025-11-19","region":"Seattle","edit_url":"https:\/\/docs.google.com\/spreadsheets\/d\/12PLbLuD88yY0CuMyjCOu56uNOBr-DyRd8630ses5PJQ\/edit#gid=0&range=52:52"},{"name":"Any-Lengths","day":5,"time":"12:00","end_time":"13:00","district":"District 25","location":"Zoom","formatted_address":"Seattle, WA, USA","regions":["Seattle"],"types":["C","D"],"notes":"Zoom ID: 166876977","conference_url":"https:\/\/us02web.zoom.us\/j\/642157545?pwd=dEtjclQyVko4MGJueVpCTHNZQnB6QT09","coordinates":"47.73417,-122.22443,47.49191,-122.4597","slug":"any-lengths-6","updated":"2025-11-19","region":"Seattle","edit_url":"https:\/\/docs.google.com\/spreadsheets\/d\/12PLbLuD88yY0CuMyjCOu56uNOBr-DyRd8630ses5PJQ\/edit#gid=0&range=53:53"},{"name":"Any-Lengths","day":6,"time":"12:00","end_time":"13:00","district":"District 25","location":"Zoom","formatted_address":"Seattle, WA, USA","regions":["Seattle"],"types":["C","SP"],"notes":"Zoom ID: 166876977","conference_url":"https:\/\/us02web.zoom.us\/j\/642157545?pwd=dEtjclQyVko4MGJueVpCTHNZQnB6QT09","coordinates":"47.73417,-122.22443,47.49191,-122.4597","slug":"any-lengths-7","updated":"2026-01-26","region":"Seattle","edit_url":"https:\/\/docs.google.com\/spreadsheets\/d\/12PLbLuD88yY0CuMyjCOu56uNOBr-DyRd8630ses5PJQ\/edit#gid=0&range=54:54"},{"name":"AA Breakfast Club Online","day":0,"time":"08:00","end_time":"13:00","district":"District 25","location":"Zoom","formatted_address":"Seattle, WA, USA","regions":["Seattle"],"types":["O"],"notes":"Zoom ID:223055650, Passcode:  SEATAC","conference_url":"https:\/\/us04web.zoom.us\/j\/223055650","coordinates":"47.73417,-122.22443,47.49191,-122.4597","slug":"aa-breakfast-club-online-11","updated":"2024-05-23","region":"Seattle","edit_url":"https:\/\/docs.google.com\/spreadsheets\/d\/12PLbLuD88yY0CuMyjCOu56uNOBr-DyRd8630ses5PJQ\/edit#gid=0&range=55:55"},{"name":"AA Breakfast Club Online","day":1,"time":"08:00","end_time":"09:00","district":"District 25","location":"Zoom","formatted_address":"Seattle, WA, USA","regions":["Seattle"],"types":["O"],"notes":"Zoom ID:223055650, Passcode:  SEATAC","conference_url":"https:\/\/us04web.zoom.us\/j\/223055650","slug":"aa-breakfast-club-online-22","updated":"2024-01-20","region":"Seattle","edit_url":"https:\/\/docs.google.com\/spreadsheets\/d\/12PLbLuD88yY0CuMyjCOu56uNOBr-DyRd8630ses5PJQ\/edit#gid=0&range=56:56"},{"name":"AA Breakfast Club Online","day":2,"time":"08:00","end_time":"09:30","district":"District 25","location":"Zoom","formatted_address":"Seattle, WA, USA","regions":["Seattle"],"types":["O"],"notes":"Zoom ID:223055650, Passcode:  SEATAC","conference_url":"https:\/\/us04web.zoom.us\/j\/223055650","slug":"aa-breakfast-club-online-33","updated":"2024-01-20","region":"Seattle","edit_url":"https:\/\/docs.google.com\/spreadsheets\/d\/12PLbLuD88yY0CuMyjCOu56uNOBr-DyRd8630ses5PJQ\/edit#gid=0&range=57:57"},{"name":"AA Breakfast Club Online","day":3,"time":"08:00","end_time":"09:30","district":"District 25","location":"Zoom","formatted_address":"Seattle, WA, USA","regions":["Seattle"],"types":["O"],"notes":"Zoom ID:223055650, Passcode:  SEATAC","conference_url":"https:\/\/us04web.zoom.us\/j\/223055650","slug":"aa-breakfast-club-online-44","updated":"2024-01-20","region":"Seattle","edit_url":"https:\/\/docs.google.com\/spreadsheets\/d\/12PLbLuD88yY0CuMyjCOu56uNOBr-DyRd8630ses5PJQ\/edit#gid=0&range=58:58"},{"name":"AA Breakfast Club Online","day":4,"time":"08:00","end_time":"09:30","district":"District 25","location":"Zoom","formatted_address":"Seattle, WA, USA","regions":["Seattle"],"types":["O"],"notes":"Zoom ID:223055650, Passcode:  SEATAC","conference_url":"https:\/\/us04web.zoom.us\/j\/223055650","slug":"aa-breakfast-club-online-55","updated":"2024-01-20","region":"Seattle","edit_url":"https:\/\/docs.google.com\/spreadsheets\/d\/12PLbLuD88yY0CuMyjCOu56uNOBr-DyRd8630ses5PJQ\/edit#gid=0&range=59:59"},{"name":"AA Breakfast Club Online","day":5,"time":"08:00","end_time":"09:30","district":"District 25","location":"Zoom","formatted_address":"Seattle, WA, USA","regions":["Seattle"],"types":["O"],"notes":"Zoom ID:223055650, Passcode:  SEATAC","conference_url":"https:\/\/us04web.zoom.us\/j\/223055650","slug":"aa-breakfast-club-online-66","updated":"2024-01-20","region":"Seattle","edit_url":"https:\/\/docs.google.com\/spreadsheets\/d\/12PLbLuD88yY0CuMyjCOu56uNOBr-DyRd8630ses5PJQ\/edit#gid=0&range=60:60"},{"name":"AA Breakfast Club Online","day":6,"time":"08:00","end_time":"09:30","district":"District 25","location":"Zoom","formatted_address":"Seattle, WA, USA","regions":["Seattle"],"types":["O"],"notes":"Zoom ID:223055650, Passcode:  SEATAC","conference_url":"https:\/\/us04web.zoom.us\/j\/223055650","slug":"aa-breakfast-club-online-77","updated":"2024-06-16","region":"Seattle","edit_url":"https:\/\/docs.google.com\/spreadsheets\/d\/12PLbLuD88yY0CuMyjCOu56uNOBr-DyRd8630ses5PJQ\/edit#gid=0&range=61:61"},{"name":"AM Rush on Line","day":0,"time":"07:00","end_time":"08:00","district":"District 25","location":"Zoom","formatted_address":"Seattle, WA, USA","regions":["Seattle"],"types":["O"],"notes":"Zoom ID: 88540295437. Passcode: 787878","conference_url":"https:\/\/us04web.zoom.us\/j\/88540295437","slug":"am-rush-on-line-1","updated":"2024-03-16","region":"Seattle","edit_url":"https:\/\/docs.google.com\/spreadsheets\/d\/12PLbLuD88yY0CuMyjCOu56uNOBr-DyRd8630ses5PJQ\/edit#gid=0&range=62:62"},{"name":"AM Rush on Line","day":1,"time":"07:00","end_time":"08:00","district":"District 25","location":"Zoom","formatted_address":"Seattle, WA, USA","regions":["Seattle"],"types":["O"],"notes":"Zoom ID: 88540295437. Passcode: 787878","conference_url":"https:\/\/us04web.zoom.us\/j\/88540295437","slug":"am-rush-on-line-2","updated":"2024-03-16","region":"Seattle","edit_url":"https:\/\/docs.google.com\/spreadsheets\/d\/12PLbLuD88yY0CuMyjCOu56uNOBr-DyRd8630ses5PJQ\/edit#gid=0&range=63:63"},{"name":"AM Rush on Line","day":2,"time":"07:00","end_time":"08:00","district":"District 25","location":"Zoom","formatted_address":"Seattle, WA, USA","regions":["Seattle"],"types":["O"],"notes":"Zoom ID: 88540295437. Passcode: 787878","conference_url":"https:\/\/us04web.zoom.us\/j\/88540295437","slug":"am-rush-on-line-3","updated":"2024-03-16","region":"Seattle","edit_url":"https:\/\/docs.google.com\/spreadsheets\/d\/12PLbLuD88yY0CuMyjCOu56uNOBr-DyRd8630ses5PJQ\/edit#gid=0&range=64:64"},{"name":"AM Rush on Line","day":3,"time":"07:00","end_time":"08:00","district":"District 25","location":"Zoom","formatted_address":"Seattle, WA, USA","regions":["Seattle"],"types":["O"],"notes":"Zoom ID: 88540295437. Passcode: 787878","conference_url":"https:\/\/us04web.zoom.us\/j\/88540295437","slug":"am-rush-on-line-4","updated":"2024-03-16","region":"Seattle","edit_url":"https:\/\/docs.google.com\/spreadsheets\/d\/12PLbLuD88yY0CuMyjCOu56uNOBr-DyRd8630ses5PJQ\/edit#gid=0&range=65:65"},{"name":"AM Rush on Line","day":4,"time":"07:00","end_time":"08:00","district":"District 25","location":"Zoom","formatted_address":"Seattle, WA, USA","regions":["Seattle"],"types":["O"],"notes":"Zoom ID: 88540295437. Passcode: 787878","conference_url":"https:\/\/us04web.zoom.us\/j\/88540295437","slug":"am-rush-on-line-5","updated":"2024-03-16","region":"Seattle","edit_url":"https:\/\/docs.google.com\/spreadsheets\/d\/12PLbLuD88yY0CuMyjCOu56uNOBr-DyRd8630ses5PJQ\/edit#gid=0&range=66:66"},{"name":"AM Rush on Line","day":5,"time":"07:00","end_time":"08:00","district":"District 25","location":"Zoom","formatted_address":"Seattle, WA, USA","regions":["Seattle"],"types":["O"],"notes":"Zoom ID: 88540295437. Passcode: 787878","conference_url":"https:\/\/us04web.zoom.us\/j\/88540295437","slug":"am-rush-on-line-6","updated":"2024-03-16","region":"Seattle","edit_url":"https:\/\/docs.google.com\/spreadsheets\/d\/12PLbLuD88yY0CuMyjCOu56uNOBr-DyRd8630ses5PJQ\/edit#gid=0&range=67:67"},{"name":"AM Rush on Line","day":6,"time":"07:00","end_time":"08:00","district":"District 25","location":"Zoom","formatted_address":"Seattle, WA, USA","regions":["Seattle"],"types":["O"],"notes":"Zoom ID: 88540295437. Passcode: 787878","conference_url":"https:\/\/us04web.zoom.us\/j\/88540295437","slug":"am-rush-on-line-7","updated":"2024-07-20","region":"Seattle","edit_url":"https:\/\/docs.google.com\/spreadsheets\/d\/12PLbLuD88yY0CuMyjCOu56uNOBr-DyRd8630ses5PJQ\/edit#gid=0&range=68:68"},{"name":"A.A. Simplicity Zoom","day":0,"time":"10:00","end_time":"11:00","district":"District 25","location":"Zoom","formatted_address":"Seattle, WA, USA","regions":["Seattle"],"types":["DR"],"notes":"Zoom ID: 528344085, Passcode:  11121934","conference_url":"https:\/\/zoom.us\/j\/528344085","slug":"aa-simplicity-zoom-1","updated":"2024-07-20","region":"Seattle","edit_url":"https:\/\/docs.google.com\/spreadsheets\/d\/12PLbLuD88yY0CuMyjCOu56uNOBr-DyRd8630ses5PJQ\/edit#gid=0&range=69:69"},{"name":"A.A. Simplicity Zoom","day":2,"time":"10:00","end_time":"11:00","district":"District 25","location":"Zoom","formatted_address":"Seattle, WA, USA","regions":["Seattle"],"types":["DR"],"notes":"Zoom ID: 528344085, Passcode:  11121934","conference_url":"https:\/\/zoom.us\/j\/528344085","slug":"aa-simplicity-zoom-2","updated":"2024-07-20","region":"Seattle","edit_url":"https:\/\/docs.google.com\/spreadsheets\/d\/12PLbLuD88yY0CuMyjCOu56uNOBr-DyRd8630ses5PJQ\/edit#gid=0&range=70:70"},{"name":"A.A. Simplicity Zoom","day":3,"time":"10:00","end_time":"11:00","district":"District 25","location":"Zoom","formatted_address":"Seattle, WA, USA","regions":["Seattle"],"types":["DR"],"notes":"Zoom ID: 528344085, Passcode:  11121934","conference_url":"https:\/\/zoom.us\/j\/528344085","slug":"aa-simplicity-zoom-3","updated":"2024-07-20","region":"Seattle","edit_url":"https:\/\/docs.google.com\/spreadsheets\/d\/12PLbLuD88yY0CuMyjCOu56uNOBr-DyRd8630ses5PJQ\/edit#gid=0&range=71:71"},{"name":"A.A. Simplicity Zoom","day":4,"time":"10:00","end_time":"11:00","district":"District 25","location":"Zoom","formatted_address":"Seattle, WA, USA","regions":["Seattle"],"types":["DR"],"notes":"Zoom ID: 528344085, Passcode:  11121934","conference_url":"https:\/\/zoom.us\/j\/528344085","slug":"aa-simplicity-zoom-4","updated":"2024-07-20","region":"Seattle","edit_url":"https:\/\/docs.google.com\/spreadsheets\/d\/12PLbLuD88yY0CuMyjCOu56uNOBr-DyRd8630ses5PJQ\/edit#gid=0&range=72:72"},{"name":"A.A. Simplicity Zoom","day":5,"time":"10:00","end_time":"11:00","district":"District 25","location":"Zoom","formatted_address":"Seattle, WA, USA","regions":["Seattle"],"types":["DR","SP"],"notes":"Zoom ID: 528344085, Passcode:  11121934","conference_url":"https:\/\/zoom.us\/j\/528344085","slug":"aa-simplicity-zoom-5","updated":"2026-02-23","region":"Seattle","edit_url":"https:\/\/docs.google.com\/spreadsheets\/d\/12PLbLuD88yY0CuMyjCOu56uNOBr-DyRd8630ses5PJQ\/edit#gid=0&range=73:73"},{"name":"Auburn Awake","day":0,"time":"08:00","end_time":"09:00","district":"District 25","location":"Zoom","formatted_address":"Seattle, WA, USA","regions":["Seattle"],"types":["O"],"notes":"Zoom ID: 785 276 2407. No Passcode","conference_url":"https:\/\/zoom.us\/j\/7852762407","coordinates":"47.73528,-122.21982,47.48215,-122.45977","slug":"auburn-awake-1","updated":"2026-02-23","region":"Seattle","edit_url":"https:\/\/docs.google.com\/spreadsheets\/d\/12PLbLuD88yY0CuMyjCOu56uNOBr-DyRd8630ses5PJQ\/edit#gid=0&range=74:74"},{"name":"A Vision For You","day":2,"time":"17:30","end_time":"18:30","district":"District 25","location":"Zoom","formatted_address":"Seattle, WA, USA","regions":["Seattle"],"types":["W"],"notes":"Zoom ID: 85032857271; Passcode: 449743","conference_url":"https:\/\/us04web.zoom.us\/j\/85032857271","slug":"a-vision-for-you","updated":"2024-05-16","region":"Seattle","edit_url":"https:\/\/docs.google.com\/spreadsheets\/d\/12PLbLuD88yY0CuMyjCOu56uNOBr-DyRd8630ses5PJQ\/edit#gid=0&range=75:75"},{"name":"Back Porch International","day":0,"time":"09:00","end_time":"10:00","district":"District 25","location":"Zoom","formatted_address":"Seattle, WA, USA","regions":["Seattle"],"types":["O"],"notes":"Contact us at backporchint@gmail.com to request the Zoom meeting ID (aa-bpi.org)","conference_url":"https:\/\/us04web.zoom.us\/j\/301333449","coordinates":"47.73417,-122.22443,47.49191,-122.4597","slug":"back-porch-international-1","updated":"2024-01-13","region":"Seattle","edit_url":"https:\/\/docs.google.com\/spreadsheets\/d\/12PLbLuD88yY0CuMyjCOu56uNOBr-DyRd8630ses5PJQ\/edit#gid=0&range=76:76"},{"name":"Back Porch International","day":1,"time":"09:00","end_time":"10:00","district":"District 25","location":"Zoom","formatted_address":"Seattle, WA, USA","regions":["Seattle"],"types":["O"],"notes":"Contact us at backporchint@gmail.com to request the Zoom meeting ID (aa-bpi.org)","conference_url":"https:\/\/us04web.zoom.us\/j\/301333449","coordinates":"47.73417,-122.22443,47.49191,-122.4597","slug":"back-porch-international-2","updated":"2024-01-13","region":"Seattle","edit_url":"https:\/\/docs.google.com\/spreadsheets\/d\/12PLbLuD88yY0CuMyjCOu56uNOBr-DyRd8630ses5PJQ\/edit#gid=0&range=77:77"},{"name":"Back Porch International","day":2,"time":"09:00","end_time":"10:00","district":"District 25","location":"Zoom","formatted_address":"Seattle, WA, USA","regions":["Seattle"],"types":["O"],"notes":"Contact us at backporchint@gmail.com to request the Zoom meeting ID (aa-bpi.org)","conference_url":"https:\/\/us04web.zoom.us\/j\/301333449","coordinates":"47.73417,-122.22443,47.49191,-122.4597","slug":"back-porch-international-3","updated":"2024-01-13","region":"Seattle","edit_url":"https:\/\/docs.google.com\/spreadsheets\/d\/12PLbLuD88yY0CuMyjCOu56uNOBr-DyRd8630ses5PJQ\/edit#gid=0&range=78:78"},{"name":"Back Porch International","day":3,"time":"09:00","end_time":"10:00","district":"District 25","location":"Zoom","formatted_address":"Seattle, WA, USA","regions":["Seattle"],"types":["O"],"notes":"Contact us at backporchint@gmail.com to request the Zoom meeting ID (aa-bpi.org)","conference_url":"https:\/\/us04web.zoom.us\/j\/301333449","coordinates":"47.73417,-122.22443,47.49191,-122.4597","slug":"back-porch-international-4","updated":"2024-01-13","region":"Seattle","edit_url":"https:\/\/docs.google.com\/spreadsheets\/d\/12PLbLuD88yY0CuMyjCOu56uNOBr-DyRd8630ses5PJQ\/edit#gid=0&range=79:79"},{"name":"Back Porch International","day":4,"time":"09:00","end_time":"10:00","district":"District 25","location":"Zoom","formatted_address":"Seattle, WA, USA","regions":["Seattle"],"types":["O"],"notes":"Contact us at backporchint@gmail.com to request the Zoom meeting ID (aa-bpi.org)","conference_url":"https:\/\/us04web.zoom.us\/j\/301333449","coordinates":"47.73417,-122.22443,47.49191,-122.4597","slug":"back-porch-international-5","updated":"2024-01-13","region":"Seattle","edit_url":"https:\/\/docs.google.com\/spreadsheets\/d\/12PLbLuD88yY0CuMyjCOu56uNOBr-DyRd8630ses5PJQ\/edit#gid=0&range=80:80"},{"name":"Back Porch International","day":5,"time":"09:00","end_time":"10:00","district":"District 25","location":"Zoom","formatted_address":"Seattle, WA, USA","regions":["Seattle"],"types":["O"],"notes":"Contact us at backporchint@gmail.com to request the Zoom meeting ID (aa-bpi.org)","conference_url":"https:\/\/us04web.zoom.us\/j\/301333449","coordinates":"47.73417,-122.22443,47.49191,-122.4597","slug":"back-porch-international-6","updated":"2024-01-13","region":"Seattle","edit_url":"https:\/\/docs.google.com\/spreadsheets\/d\/12PLbLuD88yY0CuMyjCOu56uNOBr-DyRd8630ses5PJQ\/edit#gid=0&range=81:81"},{"name":"Back Porch International","day":6,"time":"09:00","end_time":"10:00","district":"District 25","location":"Zoom","formatted_address":"Seattle, WA, USA","regions":["Seattle"],"types":["O"],"notes":"Contact us at backporchint@gmail.com to request the Zoom meeting ID (aa-bpi.org)","conference_url":"https:\/\/us04web.zoom.us\/j\/301333449","coordinates":"47.73417,-122.22443,47.49191,-122.4597","slug":"back-porch-international-7","updated":"2024-01-13","region":"Seattle","edit_url":"https:\/\/docs.google.com\/spreadsheets\/d\/12PLbLuD88yY0CuMyjCOu56uNOBr-DyRd8630ses5PJQ\/edit#gid=0&range=82:82"},{"name":"Carrying the Message","day":1,"time":"07:00","end_time":"08:30","district":"District 25","location":"Zoom","formatted_address":"Bremerton, WA, USA","regions":["Bremerton"],"types":["O"],"notes":"Zoom ID: 84787016016, Passcode: Kitsap","conference_url":"https:\/\/zoom.us\/j\/84787016016","coordinates":"47.6069,-122.60216,47.50173,-122.80458","slug":"carrying-the-message-2","updated":"2024-01-11","region":"Bremerton","edit_url":"https:\/\/docs.google.com\/spreadsheets\/d\/12PLbLuD88yY0CuMyjCOu56uNOBr-DyRd8630ses5PJQ\/edit#gid=0&range=83:83"},{"name":"Carrying the Message","day":2,"time":"07:00","end_time":"08:30","district":"District 25","location":"Zoom","formatted_address":"Bremerton, WA, USA","regions":["Bremerton"],"types":["O"],"notes":"Zoom ID: 898 2404 2416, Passcode: Kitsap","conference_url":"https:\/\/zoom.us\/j\/84787016016","coordinates":"47.6069,-122.60216,47.50173,-122.80458","slug":"carrying-the-message-3","updated":"2024-02-02","region":"Bremerton","edit_url":"https:\/\/docs.google.com\/spreadsheets\/d\/12PLbLuD88yY0CuMyjCOu56uNOBr-DyRd8630ses5PJQ\/edit#gid=0&range=84:84"},{"name":"Carrying the Message","day":3,"time":"07:00","end_time":"08:30","district":"District 25","location":"Zoom","formatted_address":"Bremerton, WA, USA","regions":["Bremerton"],"types":["O"],"notes":"Zoom ID: 84787016016, Passcode: Kitsap","conference_url":"https:\/\/zoom.us\/j\/84787016016","coordinates":"47.6069,-122.60216,47.50173,-122.80458","slug":"carrying-the-message-4","updated":"2024-01-11","region":"Bremerton","edit_url":"https:\/\/docs.google.com\/spreadsheets\/d\/12PLbLuD88yY0CuMyjCOu56uNOBr-DyRd8630ses5PJQ\/edit#gid=0&range=85:85"},{"name":"Carrying the Message","day":4,"time":"07:00","end_time":"08:30","district":"District 25","location":"Zoom","formatted_address":"Bremerton, WA, USA","regions":["Bremerton"],"types":["O"],"notes":"Zoom ID: 84787016016, Passcode: Kitsap","conference_url":"https:\/\/zoom.us\/j\/84787016016","coordinates":"47.6069,-122.60216,47.50173,-122.80458","slug":"carrying-the-message-5","updated":"2024-01-11","region":"Bremerton","edit_url":"https:\/\/docs.google.com\/spreadsheets\/d\/12PLbLuD88yY0CuMyjCOu56uNOBr-DyRd8630ses5PJQ\/edit#gid=0&range=86:86"},{"name":"Carrying the Message","day":5,"time":"07:00","end_time":"08:30","district":"District 25","location":"Zoom","formatted_address":"Bremerton, WA, USA","regions":["Bremerton"],"types":["O"],"notes":"Zoom ID: 84787016016, Passcode: Kitsap","conference_url":"https:\/\/zoom.us\/j\/84787016016","coordinates":"47.6069,-122.60216,47.50173,-122.80458","slug":"carrying-the-message-6","updated":"2024-01-11","region":"Bremerton","edit_url":"https:\/\/docs.google.com\/spreadsheets\/d\/12PLbLuD88yY0CuMyjCOu56uNOBr-DyRd8630ses5PJQ\/edit#gid=0&range=87:87"},{"name":"Carrying the Message","day":6,"time":"07:00","end_time":"08:30","district":"District 25","location":"Zoom","formatted_address":"Bremerton, WA, USA","regions":["Bremerton"],"types":["O"],"notes":"Zoom ID: 84787016016, Passcode: Kitsap","conference_url":"https:\/\/zoom.us\/j\/84787016016","coordinates":"47.6069,-122.60216,47.50173,-122.80458","slug":"carrying-the-message-7","updated":"2024-01-11","region":"Bremerton","edit_url":"https:\/\/docs.google.com\/spreadsheets\/d\/12PLbLuD88yY0CuMyjCOu56uNOBr-DyRd8630ses5PJQ\/edit#gid=0&range=88:88"},{"name":"Carrying the Message","day":4,"time":"19:00","end_time":"22:00","district":"District 25","location":"Zoom","formatted_address":"Bremerton, WA, USA","regions":["Bremerton"],"types":["O"],"notes":"Zoom ID: 82603883690, Passcode: Kitsap","conference_url":"https:\/\/zoom.us\/j\/82603883690","coordinates":"47.6069,-122.60216,47.50173,-122.80458","slug":"carrying-the-message-10","updated":"2025-12-21","region":"Bremerton","edit_url":"https:\/\/docs.google.com\/spreadsheets\/d\/12PLbLuD88yY0CuMyjCOu56uNOBr-DyRd8630ses5PJQ\/edit#gid=0&range=89:89"},{"name":"Carrying the Message","day":6,"time":"21:00","end_time":"22:00","district":"District 25","location":"Zoom","formatted_address":"Bremerton, WA, USA","regions":["Bremerton"],"types":["O"],"notes":"Zoom ID: 82603883690, Passcode: Kitsap","conference_url":"https:\/\/zoom.us\/j\/82603883690","coordinates":"47.6069,-122.60216,47.50173,-122.80458","slug":"carrying-the-message-14","updated":"2024-01-11","region":"Bremerton","edit_url":"https:\/\/docs.google.com\/spreadsheets\/d\/12PLbLuD88yY0CuMyjCOu56uNOBr-DyRd8630ses5PJQ\/edit#gid=0&range=90:90"},{"name":"Daily Fellowship","day":0,"time":"20:00","end_time":"21:00","district":"District 25","location":"Zoom","formatted_address":"Seattle, WA, USA","regions":["Seattle"],"types":["O"],"notes":"Zoom ID: 417258856, Passcode: 461771","conference_url":"https:\/\/zoom.us\/j\/417258856","slug":"daily-fellowship-1","updated":"2024-05-20","region":"Seattle","edit_url":"https:\/\/docs.google.com\/spreadsheets\/d\/12PLbLuD88yY0CuMyjCOu56uNOBr-DyRd8630ses5PJQ\/edit#gid=0&range=91:91"},{"name":"Daily Fellowship","day":1,"time":"20:00","end_time":"21:00","district":"District 25","location":"Zoom","formatted_address":"Seattle, WA, USA","regions":["Seattle"],"types":["O"],"notes":"Zoom ID: 417258856, Passcode: 461771","conference_url":"https:\/\/zoom.us\/j\/417258856","slug":"daily-fellowship-2","updated":"2024-05-20","region":"Seattle","edit_url":"https:\/\/docs.google.com\/spreadsheets\/d\/12PLbLuD88yY0CuMyjCOu56uNOBr-DyRd8630ses5PJQ\/edit#gid=0&range=92:92"},{"name":"Daily Fellowship","day":2,"time":"20:00","end_time":"21:00","district":"District 25","location":"Zoom","formatted_address":"Seattle, WA, USA","regions":["Seattle"],"types":["O"],"notes":"Zoom ID: 417258856, Passcode: 461771","conference_url":"https:\/\/zoom.us\/j\/417258856","slug":"daily-fellowship-3","updated":"2024-05-20","region":"Seattle","edit_url":"https:\/\/docs.google.com\/spreadsheets\/d\/12PLbLuD88yY0CuMyjCOu56uNOBr-DyRd8630ses5PJQ\/edit#gid=0&range=93:93"},{"name":"Daily Fellowship","day":3,"time":"20:00","end_time":"21:00","district":"District 25","location":"Zoom","formatted_address":"Seattle, WA, USA","regions":["Seattle"],"types":["O"],"notes":"Zoom ID: 417258856, Passcode: 461771","conference_url":"https:\/\/zoom.us\/j\/417258856","slug":"daily-fellowship-4","updated":"2024-05-20","region":"Seattle","edit_url":"https:\/\/docs.google.com\/spreadsheets\/d\/12PLbLuD88yY0CuMyjCOu56uNOBr-DyRd8630ses5PJQ\/edit#gid=0&range=94:94"},{"name":"Daily Fellowship","day":4,"time":"20:00","end_time":"21:00","district":"District 25","location":"Zoom","formatted_address":"Seattle, WA, USA","regions":["Seattle"],"types":["O"],"notes":"Zoom ID: 417258856, Passcode: 461771","conference_url":"https:\/\/zoom.us\/j\/417258856","slug":"daily-fellowship-5","updated":"2024-05-20","region":"Seattle","edit_url":"https:\/\/docs.google.com\/spreadsheets\/d\/12PLbLuD88yY0CuMyjCOu56uNOBr-DyRd8630ses5PJQ\/edit#gid=0&range=95:95"},{"name":"Daily Fellowship","day":5,"time":"20:00","end_time":"21:00","district":"District 25","location":"Zoom","formatted_address":"Seattle, WA, USA","regions":["Seattle"],"types":["O"],"notes":"Zoom ID: 417258856, Passcode: 461771","conference_url":"https:\/\/zoom.us\/j\/417258856","slug":"daily-fellowship-6","updated":"2024-05-20","region":"Seattle","edit_url":"https:\/\/docs.google.com\/spreadsheets\/d\/12PLbLuD88yY0CuMyjCOu56uNOBr-DyRd8630ses5PJQ\/edit#gid=0&range=96:96"},{"name":"Daily Fellowship","day":6,"time":"20:00","end_time":"21:00","district":"District 25","location":"Zoom","formatted_address":"Seattle, WA, USA","regions":["Seattle"],"types":["O"],"notes":"Zoom ID: 417258856, Passcode: 461771","conference_url":"https:\/\/zoom.us\/j\/417258856","slug":"daily-fellowship-7","updated":"2024-05-20","region":"Seattle","edit_url":"https:\/\/docs.google.com\/spreadsheets\/d\/12PLbLuD88yY0CuMyjCOu56uNOBr-DyRd8630ses5PJQ\/edit#gid=0&range=97:97"},{"name":"Delray Beach Nooners","day":0,"time":"09:00","end_time":"10:00","district":"District 25","location":"Zoom","formatted_address":"Delray Beach, FL, USA","regions":["Delray Beach"],"types":["D","SP"],"notes":"Zoom ID: 6423303499, Passcode: 537251","conference_url":"https:\/\/zoom.us\/j\/6423303499","coordinates":"26.49152,-80.0557,26.42055,-80.12865","slug":"delray-beach-nooners","updated":"2024-01-25","region":"Delray Beach","edit_url":"https:\/\/docs.google.com\/spreadsheets\/d\/12PLbLuD88yY0CuMyjCOu56uNOBr-DyRd8630ses5PJQ\/edit#gid=0&range=98:98"},{"name":"Delray Beach Nooners","day":1,"time":"09:00","end_time":"10:00","district":"District 25","location":"Zoom","formatted_address":"Delray Beach, FL, USA","regions":["Delray Beach"],"types":["BE"],"notes":"Zoom ID: 6423303499, Passcode: 537251","conference_url":"https:\/\/zoom.us\/j\/6423303499","coordinates":"26.49152,-80.0557,26.42055,-80.12865","slug":"delray-beach-nooners-2","updated":"2024-01-25","region":"Delray Beach","edit_url":"https:\/\/docs.google.com\/spreadsheets\/d\/12PLbLuD88yY0CuMyjCOu56uNOBr-DyRd8630ses5PJQ\/edit#gid=0&range=99:99"},{"name":"Delray Beach Nooners","day":2,"time":"09:00","end_time":"10:00","district":"District 25","location":"Zoom","formatted_address":"Delray Beach, FL, USA","regions":["Delray Beach"],"types":["D","SP"],"notes":"Zoom ID: 6423303499, Passcode: 537251","conference_url":"https:\/\/zoom.us\/j\/6423303499","coordinates":"26.49152,-80.0557,26.42055,-80.12865","slug":"delray-beach-nooners-3","updated":"2024-01-25","region":"Delray Beach","edit_url":"https:\/\/docs.google.com\/spreadsheets\/d\/12PLbLuD88yY0CuMyjCOu56uNOBr-DyRd8630ses5PJQ\/edit#gid=0&range=100:100"},{"name":"Delray Beach Nooners","day":3,"time":"09:00","end_time":"10:00","district":"District 25","location":"Zoom","formatted_address":"Delray Beach, FL, USA","regions":["Delray Beach"],"types":["ABSI"],"notes":"Zoom ID: 6423303499, Passcode: 537251","conference_url":"https:\/\/zoom.us\/j\/6423303499","coordinates":"26.49152,-80.0557,26.42055,-80.12865","slug":"delray-beach-nooners-4","updated":"2024-01-25","region":"Delray Beach","edit_url":"https:\/\/docs.google.com\/spreadsheets\/d\/12PLbLuD88yY0CuMyjCOu56uNOBr-DyRd8630ses5PJQ\/edit#gid=0&range=101:101"},{"name":"Delray Beach Nooners","day":4,"time":"09:00","end_time":"10:00","district":"District 25","location":"Zoom","formatted_address":"Delray Beach, FL, USA","regions":["Delray Beach"],"types":["B"],"notes":"Zoom ID: 6423303499, Passcode: 537251","conference_url":"https:\/\/zoom.us\/j\/6423303499","coordinates":"26.49152,-80.0557,26.42055,-80.12865","slug":"delray-beach-nooners-5","updated":"2024-01-25","region":"Delray Beach","edit_url":"https:\/\/docs.google.com\/spreadsheets\/d\/12PLbLuD88yY0CuMyjCOu56uNOBr-DyRd8630ses5PJQ\/edit#gid=0&range=102:102"},{"name":"Delray Beach Nooners","day":5,"time":"09:00","end_time":"10:00","district":"District 25","location":"Zoom","formatted_address":"Delray Beach, FL, USA","regions":["Delray Beach"],"types":["12x12"],"notes":"Zoom ID: 6423303499, Passcode: 537251","conference_url":"https:\/\/zoom.us\/j\/6423303499","coordinates":"26.49152,-80.0557,26.42055,-80.12865","slug":"delray-beach-nooners-6","updated":"2024-01-25","region":"Delray Beach","edit_url":"https:\/\/docs.google.com\/spreadsheets\/d\/12PLbLuD88yY0CuMyjCOu56uNOBr-DyRd8630ses5PJQ\/edit#gid=0&range=103:103"},{"name":"Delray Beach Nooners","day":6,"time":"09:00","end_time":"10:00","district":"District 25","location":"Zoom","formatted_address":"Delray Beach, FL, USA","regions":["Delray Beach"],"types":["D","SP"],"notes":"Zoom ID: 6423303499, Passcode: 537251","conference_url":"https:\/\/zoom.us\/j\/6423303499","coordinates":"26.49152,-80.0557,26.42055,-80.12865","slug":"delray-beach-nooners-7","updated":"2024-01-25","region":"Delray Beach","edit_url":"https:\/\/docs.google.com\/spreadsheets\/d\/12PLbLuD88yY0CuMyjCOu56uNOBr-DyRd8630ses5PJQ\/edit#gid=0&range=104:104"},{"name":"Digital Dawn Patrol","day":1,"time":"06:30","end_time":"07:30","district":"District 25","location":"Zoom","formatted_address":"Seattle, WA, USA","regions":["Seattle"],"types":["O"],"notes":"Zoom ID:  81746171414, Passcode: 376442","conference_url":"https:\/\/us02web.zoom.us\/j\/81746171414?pwd=a1pzN21vY25YMldFQVJWUURaVXdEdz09","coordinates":"47.73417,-122.22443,47.49191,-122.4597","slug":"digital-dawn-patrol-1","updated":"2024-06-12","region":"Seattle","edit_url":"https:\/\/docs.google.com\/spreadsheets\/d\/12PLbLuD88yY0CuMyjCOu56uNOBr-DyRd8630ses5PJQ\/edit#gid=0&range=105:105"},{"name":"Digital Dawn Patrol","day":2,"time":"06:30","end_time":"07:30","district":"District 25","location":"Zoom","formatted_address":"Seattle, WA, USA","regions":["Seattle"],"types":["O"],"notes":"Zoom ID:  81746171414, Passcode: 376442","conference_url":"https:\/\/us02web.zoom.us\/j\/81746171414?pwd=a1pzN21vY25YMldFQVJWUURaVXdEdz09","coordinates":"47.73417,-122.22443,47.49191,-122.4597","slug":"digital-dawn-patrol-2","updated":"2024-01-11","region":"Seattle","edit_url":"https:\/\/docs.google.com\/spreadsheets\/d\/12PLbLuD88yY0CuMyjCOu56uNOBr-DyRd8630ses5PJQ\/edit#gid=0&range=106:106"},{"name":"Digital Dawn Patrol","day":3,"time":"06:30","end_time":"07:30","district":"District 25","location":"Zoom","formatted_address":"Seattle, WA, USA","regions":["Seattle"],"types":["O"],"notes":"Zoom ID:  81746171414, Passcode: 376442","conference_url":"https:\/\/us02web.zoom.us\/j\/81746171414?pwd=a1pzN21vY25YMldFQVJWUURaVXdEdz09","coordinates":"47.73417,-122.22443,47.49191,-122.4597","slug":"digital-dawn-patrol-3","updated":"2024-01-11","region":"Seattle","edit_url":"https:\/\/docs.google.com\/spreadsheets\/d\/12PLbLuD88yY0CuMyjCOu56uNOBr-DyRd8630ses5PJQ\/edit#gid=0&range=107:107"},{"name":"Digital Dawn Patrol","day":4,"time":"06:30","end_time":"07:30","district":"District 25","location":"Zoom","formatted_address":"Seattle, WA, USA","regions":["Seattle"],"types":["O"],"notes":"Zoom ID:  81746171414, Passcode: 376442","conference_url":"https:\/\/us02web.zoom.us\/j\/81746171414?pwd=a1pzN21vY25YMldFQVJWUURaVXdEdz09","coordinates":"47.73417,-122.22443,47.49191,-122.4597","slug":"digital-dawn-patrol-4","updated":"2024-01-11","region":"Seattle","edit_url":"https:\/\/docs.google.com\/spreadsheets\/d\/12PLbLuD88yY0CuMyjCOu56uNOBr-DyRd8630ses5PJQ\/edit#gid=0&range=108:108"},{"name":"Digital Dawn Patrol","day":5,"time":"06:30","end_time":"07:30","district":"District 25","location":"Zoom","formatted_address":"Seattle, WA, USA","regions":["Seattle"],"types":["O"],"notes":"Zoom ID:  81746171414, Passcode: 376442","conference_url":"https:\/\/us02web.zoom.us\/j\/81746171414?pwd=a1pzN21vY25YMldFQVJWUURaVXdEdz09","coordinates":"47.73417,-122.22443,47.49191,-122.4597","slug":"digital-dawn-patrol-5","updated":"2024-01-11","region":"Seattle","edit_url":"https:\/\/docs.google.com\/spreadsheets\/d\/12PLbLuD88yY0CuMyjCOu56uNOBr-DyRd8630ses5PJQ\/edit#gid=0&range=109:109"},{"name":"Digital Dawn Patrol","day":6,"time":"07:00","end_time":"08:00","district":"District 25","location":"Zoom","formatted_address":"Seattle, WA, USA","regions":["Seattle"],"types":["O"],"notes":"Zoom ID:  81746171414, Passcode: 376442","conference_url":"https:\/\/us02web.zoom.us\/j\/81746171414?pwd=a1pzN21vY25YMldFQVJWUURaVXdEdz09","coordinates":"47.73417,-122.22443,47.49191,-122.4597","slug":"digital-dawn-patrol-6","updated":"2024-01-11","region":"Seattle","edit_url":"https:\/\/docs.google.com\/spreadsheets\/d\/12PLbLuD88yY0CuMyjCOu56uNOBr-DyRd8630ses5PJQ\/edit#gid=0&range=110:110"},{"name":"Experience, Strength and Hope (ESH)","day":0,"time":"12:00","end_time":"13:00","district":"District 25","location":"Zoom","formatted_address":"Port Orchard, WA, USA","regions":["Port Orchard"],"types":["SP"],"notes":"Meeting ID: 802 763 1303; PC: serenity; Requirement for sharing is 24 hours of sobriety","conference_url":"https:\/\/us02web.zoom.us\/j\/8027631303?pwd=ZzE4b3VwL2xZRWxoZGVOcG5xVDM2UT09","coordinates":"47.54842,-122.60204,47.48044,-122.71961","slug":"dist25-esh-1","updated":"2025-11-19","region":"Port Orchard","edit_url":"https:\/\/docs.google.com\/spreadsheets\/d\/12PLbLuD88yY0CuMyjCOu56uNOBr-DyRd8630ses5PJQ\/edit#gid=0&range=111:111"},{"name":"Experience, Strength and Hope (ESH)","day":1,"time":"12:00","end_time":"13:00","district":"District 25","location":"Zoom","formatted_address":"Port Orchard, WA, USA","regions":["Port Orchard"],"types":["D","EN","O"],"notes":"Meeting ID: 802 763 1303; PC: serenity; Requirement for sharing is 24 hours of sobriety","conference_url":"https:\/\/us02web.zoom.us\/j\/8027631303?pwd=ZzE4b3VwL2xZRWxoZGVOcG5xVDM2UT09","coordinates":"47.54842,-122.60204,47.48044,-122.71961","slug":"dist25-esh-2","updated":"2023-12-29","region":"Port Orchard","edit_url":"https:\/\/docs.google.com\/spreadsheets\/d\/12PLbLuD88yY0CuMyjCOu56uNOBr-DyRd8630ses5PJQ\/edit#gid=0&range=112:112"},{"name":"Experience, Strength and Hope (ESH)","day":2,"time":"12:00","end_time":"13:00","district":"District 25","location":"Zoom","formatted_address":"Port Orchard, WA, USA","regions":["Port Orchard"],"types":["EN","O","D"],"notes":"Meeting ID: 802 763 1303; PC: serenity; Requirement for sharing is 24 hours of sobriety","conference_url":"https:\/\/us02web.zoom.us\/j\/8027631303?pwd=ZzE4b3VwL2xZRWxoZGVOcG5xVDM2UT09","coordinates":"47.54842,-122.60204,47.48044,-122.71961","slug":"dist25-esh-3","updated":"2023-12-21","region":"Port Orchard","edit_url":"https:\/\/docs.google.com\/spreadsheets\/d\/12PLbLuD88yY0CuMyjCOu56uNOBr-DyRd8630ses5PJQ\/edit#gid=0&range=113:113"},{"name":"Experience, Strength and Hope (ESH)","day":3,"time":"12:00","end_time":"13:00","district":"District 25","location":"Zoom","formatted_address":"Port Orchard, WA, USA","regions":["Port Orchard"],"types":["EN","O","D"],"notes":"Meeting ID: 802 763 1303; PC: serenity; Requirement for sharing is 24 hours of sobriety","conference_url":"https:\/\/us02web.zoom.us\/j\/8027631303?pwd=ZzE4b3VwL2xZRWxoZGVOcG5xVDM2UT09","coordinates":"47.54842,-122.60204,47.48044,-122.71961","slug":"dist25-esh-4","updated":"2025-11-23","region":"Port Orchard","edit_url":"https:\/\/docs.google.com\/spreadsheets\/d\/12PLbLuD88yY0CuMyjCOu56uNOBr-DyRd8630ses5PJQ\/edit#gid=0&range=114:114"},{"name":"Experience, Strength and Hope (ESH)","day":4,"time":"12:00","end_time":"13:00","district":"District 25","location":"Zoom","formatted_address":"Port Orchard, WA, USA","regions":["Port Orchard"],"types":["EN","O","D"],"notes":"Meeting ID: 802 763 1303; PC: serenity; Requirement for sharing is 24 hours of sobriety","conference_url":"https:\/\/us02web.zoom.us\/j\/8027631303?pwd=ZzE4b3VwL2xZRWxoZGVOcG5xVDM2UT09","coordinates":"47.54842,-122.60204,47.48044,-122.71961","slug":"dist25-esh-5","updated":"2023-12-21","region":"Port Orchard","edit_url":"https:\/\/docs.google.com\/spreadsheets\/d\/12PLbLuD88yY0CuMyjCOu56uNOBr-DyRd8630ses5PJQ\/edit#gid=0&range=115:115"},{"name":"Experience, Strength and Hope (ESH)","day":5,"time":"12:00","end_time":"13:00","district":"District 25","location":"Zoom","formatted_address":"Port Orchard, WA, USA","regions":["Port Orchard"],"types":["EN","O","D"],"notes":"Meeting ID: 802 763 1303; PC: serenity; Requirement for sharing is 24 hours of sobriety","conference_url":"https:\/\/us02web.zoom.us\/j\/8027631303?pwd=ZzE4b3VwL2xZRWxoZGVOcG5xVDM2UT09","coordinates":"47.54842,-122.60204,47.48044,-122.71961","slug":"dist25-esh-6","updated":"2023-12-21","region":"Port Orchard","edit_url":"https:\/\/docs.google.com\/spreadsheets\/d\/12PLbLuD88yY0CuMyjCOu56uNOBr-DyRd8630ses5PJQ\/edit#gid=0&range=116:116"},{"name":"Experience, Strength and Hope (ESH)","day":6,"time":"12:00","end_time":"13:00","district":"District 25","location":"Zoom","formatted_address":"Port Orchard, WA, USA","regions":["Port Orchard"],"types":["D","EN","O"],"notes":"Meeting ID: 802 763 1303; PC: serenity; Requirement for sharing is 24 hours of sobriety","conference_url":"https:\/\/us02web.zoom.us\/j\/8027631303?pwd=ZzE4b3VwL2xZRWxoZGVOcG5xVDM2UT09","coordinates":"47.54842,-122.60204,47.48044,-122.71961","slug":"dist25-esh-7","updated":"2024-01-05","region":"Port Orchard","edit_url":"https:\/\/docs.google.com\/spreadsheets\/d\/12PLbLuD88yY0CuMyjCOu56uNOBr-DyRd8630ses5PJQ\/edit#gid=0&range=117:117"},{"name":"Finally Free","day":1,"time":"19:00","end_time":"20:00","district":"District 25","location":"Go to Meeting","formatted_address":"Federal Way, WA, USA","regions":["Federal Way"],"types":["DR"],"notes":"Finally Free - GoTo Meeting, 476702597","conference_url":"https:\/\/global.gotomeeting.com\/join\/476702597","coordinates":"47.35796,-122.2733,47.25782,-122.41763","slug":"finally-free","updated":"2025-11-19","region":"Federal Way","edit_url":"https:\/\/docs.google.com\/spreadsheets\/d\/12PLbLuD88yY0CuMyjCOu56uNOBr-DyRd8630ses5PJQ\/edit#gid=0&range=118:118"},{"name":"Freedom In Recovery","day":3,"time":"19:00","end_time":"20:00","district":"District 25","location":"Zoom","formatted_address":"Seattle, WA, USA","regions":["Seattle"],"types":["O"],"notes":"Zoom ID: 86314497358, PC: FFB 544 Women's","conference_url":"https:\/\/zoom.us\/j\/86314497358","slug":"freedom-in-recovery1","updated":"2026-01-01","region":"Seattle","edit_url":"https:\/\/docs.google.com\/spreadsheets\/d\/12PLbLuD88yY0CuMyjCOu56uNOBr-DyRd8630ses5PJQ\/edit#gid=0&range=119:119"},{"name":"Fremont Home Group Zoom","day":0,"time":"20:00","end_time":"21:00","district":"District 25","location":"Zoom","formatted_address":"Seattle, WA, USA","regions":["Seattle"],"types":["O"],"notes":"zoom id 84398152400 pw 535725","conference_url":"https:\/\/zoom.us\/j\/84398152400","slug":"fremont-home-group-zoom-1","updated":"2024-11-15","region":"Seattle","edit_url":"https:\/\/docs.google.com\/spreadsheets\/d\/12PLbLuD88yY0CuMyjCOu56uNOBr-DyRd8630ses5PJQ\/edit#gid=0&range=120:120"},{"name":"Fremont Home Group Zoom","day":1,"time":"20:00","end_time":"21:00","district":"District 25","location":"Zoom","formatted_address":"Seattle, WA, USA","regions":["Seattle"],"types":["O"],"notes":"zoom id 84398152400 pw 535725","conference_url":"https:\/\/zoom.us\/j\/84398152400","slug":"fremont-home-group-zoom-2","updated":"2024-01-29","region":"Seattle","edit_url":"https:\/\/docs.google.com\/spreadsheets\/d\/12PLbLuD88yY0CuMyjCOu56uNOBr-DyRd8630ses5PJQ\/edit#gid=0&range=121:121"},{"name":"Fremont Home Group Zoom","day":2,"time":"20:00","end_time":"21:00","district":"District 25","location":"Zoom","formatted_address":"Seattle, WA, USA","regions":["Seattle"],"types":["O"],"notes":"zoom id 84398152400 pw 535725","conference_url":"https:\/\/zoom.us\/j\/84398152400","slug":"fremont-home-group-zoom-3","updated":"2024-01-29","region":"Seattle","edit_url":"https:\/\/docs.google.com\/spreadsheets\/d\/12PLbLuD88yY0CuMyjCOu56uNOBr-DyRd8630ses5PJQ\/edit#gid=0&range=122:122"},{"name":"Fremont Home Group Zoom","day":3,"time":"20:00","end_time":"21:00","district":"District 25","location":"Zoom","formatted_address":"Seattle, WA, USA","regions":["Seattle"],"types":["O"],"notes":"zoom id 84398152400 pw 535725","conference_url":"https:\/\/zoom.us\/j\/84398152400","slug":"fremont-home-group-zoom-4","updated":"2024-01-29","region":"Seattle","edit_url":"https:\/\/docs.google.com\/spreadsheets\/d\/12PLbLuD88yY0CuMyjCOu56uNOBr-DyRd8630ses5PJQ\/edit#gid=0&range=123:123"},{"name":"Fremont Home Group Zoom","day":4,"time":"20:00","end_time":"21:00","district":"District 25","location":"Zoom","formatted_address":"Seattle, WA, USA","regions":["Seattle"],"types":["O"],"notes":"zoom id 84398152400 pw 535725","conference_url":"https:\/\/zoom.us\/j\/84398152400","slug":"fremont-home-group-zoom-5","updated":"2024-01-29","region":"Seattle","edit_url":"https:\/\/docs.google.com\/spreadsheets\/d\/12PLbLuD88yY0CuMyjCOu56uNOBr-DyRd8630ses5PJQ\/edit#gid=0&range=124:124"},{"name":"Fremont Home Group Zoom","day":5,"time":"20:00","end_time":"21:00","district":"District 25","location":"Zoom","formatted_address":"Seattle, WA, USA","regions":["Seattle"],"types":["O"],"notes":"zoom id 84398152400 pw 535725","conference_url":"https:\/\/zoom.us\/j\/84398152400","slug":"fremont-home-group-zoom-6","updated":"2024-01-29","region":"Seattle","edit_url":"https:\/\/docs.google.com\/spreadsheets\/d\/12PLbLuD88yY0CuMyjCOu56uNOBr-DyRd8630ses5PJQ\/edit#gid=0&range=125:125"},{"name":"Fremont Home Group Zoom","day":6,"time":"20:00","end_time":"21:00","district":"District 25","location":"Zoom","formatted_address":"Seattle, WA, USA","regions":["Seattle"],"types":["O"],"notes":"zoom id 84398152400 pw 535725","conference_url":"https:\/\/zoom.us\/j\/84398152400","slug":"fremont-home-group-zoom-7","updated":"2024-01-29","region":"Seattle","edit_url":"https:\/\/docs.google.com\/spreadsheets\/d\/12PLbLuD88yY0CuMyjCOu56uNOBr-DyRd8630ses5PJQ\/edit#gid=0&range=126:126"},{"name":"Fremont Hooters Group Zoom","day":0,"time":"00:00","end_time":"01:00","district":"District 25","location":"Zoom","formatted_address":"Seattle, WA, USA","regions":["Seattle"],"types":["O"],"notes":"zoom id 84398152400 pw 535725","conference_url":"https:\/\/zoom.us\/j\/84398152400","slug":"fremont-home-group-zoom-8","updated":"2024-02-17","region":"Seattle","edit_url":"https:\/\/docs.google.com\/spreadsheets\/d\/12PLbLuD88yY0CuMyjCOu56uNOBr-DyRd8630ses5PJQ\/edit#gid=0&range=127:127"},{"name":"Fremont Hooters Group Zoom","day":1,"time":"00:00","end_time":"01:00","district":"District 25","location":"Zoom","formatted_address":"Seattle, WA, USA","regions":["Seattle"],"types":["O"],"notes":"zoom id 84398152400 pw 535725","conference_url":"https:\/\/zoom.us\/j\/84398152400","slug":"fremont-home-group-zoom-9","updated":"2024-01-29","region":"Seattle","edit_url":"https:\/\/docs.google.com\/spreadsheets\/d\/12PLbLuD88yY0CuMyjCOu56uNOBr-DyRd8630ses5PJQ\/edit#gid=0&range=128:128"},{"name":"Fremont Hooters Group Zoom","day":2,"time":"00:00","end_time":"01:00","district":"District 25","location":"Zoom","formatted_address":"Seattle, WA, USA","regions":["Seattle"],"types":["O"],"notes":"zoom id 84398152400 pw 535725","conference_url":"https:\/\/zoom.us\/j\/84398152400","slug":"fremont-home-group-zoom-10","updated":"2024-01-29","region":"Seattle","edit_url":"https:\/\/docs.google.com\/spreadsheets\/d\/12PLbLuD88yY0CuMyjCOu56uNOBr-DyRd8630ses5PJQ\/edit#gid=0&range=129:129"},{"name":"Fremont Hooters Group Zoom","day":3,"time":"00:00","end_time":"01:00","district":"District 25","location":"Zoom","formatted_address":"Seattle, WA, USA","regions":["Seattle"],"types":["O"],"notes":"zoom id 84398152400 pw 535725","conference_url":"https:\/\/zoom.us\/j\/84398152400","slug":"fremont-home-group-zoom-11","updated":"2024-01-29","region":"Seattle","edit_url":"https:\/\/docs.google.com\/spreadsheets\/d\/12PLbLuD88yY0CuMyjCOu56uNOBr-DyRd8630ses5PJQ\/edit#gid=0&range=130:130"},{"name":"Fremont Hooters Group Zoom","day":4,"time":"00:00","end_time":"01:00","district":"District 25","location":"Zoom","formatted_address":"Seattle, WA, USA","regions":["Seattle"],"types":["O"],"notes":"zoom id 84398152400 pw 535725","conference_url":"https:\/\/zoom.us\/j\/84398152400","slug":"fremont-home-group-zoom-12","updated":"2024-01-29","region":"Seattle","edit_url":"https:\/\/docs.google.com\/spreadsheets\/d\/12PLbLuD88yY0CuMyjCOu56uNOBr-DyRd8630ses5PJQ\/edit#gid=0&range=131:131"},{"name":"Fremont Hooters Group Zoom","day":5,"time":"00:00","end_time":"01:00","district":"District 25","location":"Zoom","formatted_address":"Seattle, WA, USA","regions":["Seattle"],"types":["O"],"notes":"zoom id 84398152400 pw 535725","conference_url":"https:\/\/zoom.us\/j\/84398152400","slug":"fremont-home-group-zoom-13","updated":"2024-01-29","region":"Seattle","edit_url":"https:\/\/docs.google.com\/spreadsheets\/d\/12PLbLuD88yY0CuMyjCOu56uNOBr-DyRd8630ses5PJQ\/edit#gid=0&range=132:132"},{"name":"Fremont Hooters Group Zoom","day":6,"time":"00:00","end_time":"01:00","district":"District 25","location":"Zoom","formatted_address":"Seattle, WA, USA","regions":["Seattle"],"types":["O"],"notes":"zoom id 84398152400 pw 535725","conference_url":"https:\/\/zoom.us\/j\/84398152400","slug":"fremont-home-group-zoom-14","updated":"2024-08-14","region":"Seattle","edit_url":"https:\/\/docs.google.com\/spreadsheets\/d\/12PLbLuD88yY0CuMyjCOu56uNOBr-DyRd8630ses5PJQ\/edit#gid=0&range=133:133"},{"name":"Global Serenity","day":1,"time":"07:30","end_time":"08:30","district":"District 25","location":"Zoom","formatted_address":"Seattle, WA, USA","regions":["Seattle"],"types":["LIT"],"notes":"zoom id 89380439739","conference_url":"https:\/\/zoom.us\/j\/89380439739","slug":"global-serenity-1","updated":"2024-10-09","region":"Seattle","edit_url":"https:\/\/docs.google.com\/spreadsheets\/d\/12PLbLuD88yY0CuMyjCOu56uNOBr-DyRd8630ses5PJQ\/edit#gid=0&range=134:134"},{"name":"Global Serenity","day":2,"time":"07:30","end_time":"08:30","district":"District 25","location":"Zoom","formatted_address":"Seattle, WA, USA","regions":["Seattle"],"types":["LIT"],"notes":"zoom id 89380439739","conference_url":"https:\/\/zoom.us\/j\/89380439739","slug":"global-serenity-2","updated":"2024-08-14","region":"Seattle","edit_url":"https:\/\/docs.google.com\/spreadsheets\/d\/12PLbLuD88yY0CuMyjCOu56uNOBr-DyRd8630ses5PJQ\/edit#gid=0&range=135:135"},{"name":"Global Serenity","day":3,"time":"07:30","end_time":"08:30","district":"District 25","location":"Zoom","formatted_address":"Seattle, WA, USA","regions":["Seattle"],"types":["LIT"],"notes":"zoom id 89380439739","conference_url":"https:\/\/zoom.us\/j\/89380439739","slug":"global-serenity-3","updated":"2024-08-14","region":"Seattle","edit_url":"https:\/\/docs.google.com\/spreadsheets\/d\/12PLbLuD88yY0CuMyjCOu56uNOBr-DyRd8630ses5PJQ\/edit#gid=0&range=136:136"},{"name":"Global Serenity","day":4,"time":"07:30","end_time":"08:30","district":"District 25","location":"Zoom","formatted_address":"Seattle, WA, USA","regions":["Seattle"],"types":["LIT"],"notes":"zoom id 89380439739","conference_url":"https:\/\/zoom.us\/j\/89380439739","slug":"global-serenity-4","updated":"2024-08-14","region":"Seattle","edit_url":"https:\/\/docs.google.com\/spreadsheets\/d\/12PLbLuD88yY0CuMyjCOu56uNOBr-DyRd8630ses5PJQ\/edit#gid=0&range=137:137"},{"name":"Global Serenity","day":5,"time":"07:30","end_time":"08:30","district":"District 25","location":"Zoom","formatted_address":"Seattle, WA, USA","regions":["Seattle"],"types":["LIT"],"notes":"zoom id 89380439739","conference_url":"https:\/\/zoom.us\/j\/89380439739","slug":"global-serenity-5","updated":"2024-08-14","region":"Seattle","edit_url":"https:\/\/docs.google.com\/spreadsheets\/d\/12PLbLuD88yY0CuMyjCOu56uNOBr-DyRd8630ses5PJQ\/edit#gid=0&range=138:138"},{"name":"Global Speakers Group","day":0,"time":"04:30","end_time":"05:30","district":"District 25","location":"Zoom","formatted_address":"Seattle, WA, USA","regions":["Seattle"],"types":["D","SP"],"notes":"Zoom ID: 83711449943; passcode: 06101935","conference_url":"https:\/\/zoom.us\/j\/83711449943","slug":"global-speakers-group","updated":"2024-11-17","region":"Seattle","edit_url":"https:\/\/docs.google.com\/spreadsheets\/d\/12PLbLuD88yY0CuMyjCOu56uNOBr-DyRd8630ses5PJQ\/edit#gid=0&range=139:139"},{"name":"Global Speakers Group","day":1,"time":"06:00","end_time":"07:00","district":"District 25","location":"Zoom","formatted_address":"Seattle, WA, USA","regions":["Seattle"],"types":["D","LIT","W"],"notes":"Zoom ID: 83711449943; passcode: 06101935","conference_url":"https:\/\/zoom.us\/j\/83711449943","slug":"global-speakers-group-2","updated":"2025-02-15","region":"Seattle","edit_url":"https:\/\/docs.google.com\/spreadsheets\/d\/12PLbLuD88yY0CuMyjCOu56uNOBr-DyRd8630ses5PJQ\/edit#gid=0&range=140:140"},{"name":"Global Speakers Group","day":2,"time":"05:00","end_time":"06:00","district":"District 25","location":"Zoom","formatted_address":"Seattle, WA, USA","regions":["Seattle"],"types":["D","LIT","SP"],"notes":"Zoom ID: 83711449943; passcode: 06101935","conference_url":"https:\/\/zoom.us\/j\/83711449943","slug":"global-speakers-group-3","updated":"2024-11-17","region":"Seattle","edit_url":"https:\/\/docs.google.com\/spreadsheets\/d\/12PLbLuD88yY0CuMyjCOu56uNOBr-DyRd8630ses5PJQ\/edit#gid=0&range=141:141"},{"name":"Halfway Through Group","day":4,"time":"16:00","end_time":"17:00","district":"District 25","location":"Zoom","formatted_address":"Seattle, WA, USA","regions":["Seattle"],"types":["O","LIT","D"],"notes":"Zoom ID: 823 5635 9652 (no passcode)","conference_url":"https:\/\/zoom.us\/j\/82356359652","coordinates":"47.73417,-122.22443,47.49191,-122.4597","slug":"halfway-through-group","updated":"2024-01-20","region":"Seattle","edit_url":"https:\/\/docs.google.com\/spreadsheets\/d\/12PLbLuD88yY0CuMyjCOu56uNOBr-DyRd8630ses5PJQ\/edit#gid=0&range=142:142"},{"name":"Halfway Through Group","day":6,"time":"06:00","end_time":"07:00","district":"District 25","location":"Zoom","formatted_address":"Seattle, WA, USA","regions":["Seattle"],"types":["O","B","D"],"notes":"Zoom ID: 823 5635 9652 (no passcode)","conference_url":"https:\/\/zoom.us\/j\/82356359652","coordinates":"47.73417,-122.22443,47.49191,-122.4597","slug":"halfway-through-group-2","updated":"2023-12-21","region":"Seattle","edit_url":"https:\/\/docs.google.com\/spreadsheets\/d\/12PLbLuD88yY0CuMyjCOu56uNOBr-DyRd8630ses5PJQ\/edit#gid=0&range=143:143"},{"name":"I Am Responsible","day":3,"time":"10:00","end_time":"11:00","district":"District 25","location":"Zoom","formatted_address":"Everett, WA, USA","regions":["Everett"],"types":["O","W"],"notes":"Meeting ID : 895 6241 9254; Passcode: IAR4women","conference_url":"https:\/\/us02web.zoom.us\/j\/89562419254","coordinates":"48.03666,-121.79451,47.87819,-122.29345","slug":"i-am-responsible-2","updated":"2025-11-19","region":"Everett","edit_url":"https:\/\/docs.google.com\/spreadsheets\/d\/12PLbLuD88yY0CuMyjCOu56uNOBr-DyRd8630ses5PJQ\/edit#gid=0&range=144:144"},{"name":"I Am Responsible","day":6,"time":"10:00","end_time":"11:00","district":"District 25","location":"Zoom","formatted_address":"Everett, WA, USA","regions":["Everett"],"types":["O","W"],"notes":"Meeting ID : 895 6241 9254; Passcode: IAR4women","conference_url":"https:\/\/us02web.zoom.us\/j\/89562419254","coordinates":"48.03666,-121.79451,47.87819,-122.29345","slug":"i-am-responsible-3","updated":"2025-11-19","region":"Everett","edit_url":"https:\/\/docs.google.com\/spreadsheets\/d\/12PLbLuD88yY0CuMyjCOu56uNOBr-DyRd8630ses5PJQ\/edit#gid=0&range=145:145"},{"name":"Joy of Living","day":1,"time":"12:00","end_time":"13:00","district":"District 25","location":"Zoom","formatted_address":"Issaquah, WA, USA","regions":["Issaquah"],"types":["O"],"notes":"Zoom ID: 81259376914,","conference_url":"https:\/\/eastsideaa-org.zoom.us\/j\/81259376914","coordinates":"47.57737,-121.98573,47.50915,-122.10047","slug":"joy-of-living-1","updated":"2024-01-11","region":"Issaquah","edit_url":"https:\/\/docs.google.com\/spreadsheets\/d\/12PLbLuD88yY0CuMyjCOu56uNOBr-DyRd8630ses5PJQ\/edit#gid=0&range=146:146"},{"name":"Joy of Living","day":3,"time":"12:00","end_time":"13:00","district":"District 25","location":"Zoom","formatted_address":"Issaquah, WA, USA","regions":["Issaquah"],"types":["O"],"notes":"Zoom ID: 81259376914,","conference_url":"https:\/\/eastsideaa-org.zoom.us\/j\/81259376914","coordinates":"47.57737,-121.98573,47.50915,-122.10047","slug":"joy-of-living-2","updated":"2024-01-11","region":"Issaquah","edit_url":"https:\/\/docs.google.com\/spreadsheets\/d\/12PLbLuD88yY0CuMyjCOu56uNOBr-DyRd8630ses5PJQ\/edit#gid=0&range=147:147"},{"name":"Joy of Living","day":5,"time":"12:00","end_time":"13:00","district":"District 25","location":"Zoom","formatted_address":"Issaquah, WA, USA","regions":["Issaquah"],"types":["O"],"notes":"Zoom ID: 81259376914,","conference_url":"https:\/\/eastsideaa-org.zoom.us\/j\/81259376914","coordinates":"47.57737,-121.98573,47.50915,-122.10047","slug":"joy-of-living-3","updated":"2024-01-11","region":"Issaquah","edit_url":"https:\/\/docs.google.com\/spreadsheets\/d\/12PLbLuD88yY0CuMyjCOu56uNOBr-DyRd8630ses5PJQ\/edit#gid=0&range=148:148"},{"name":"Let's Do It","day":0,"time":"09:00","end_time":"10:00","district":"District 25","location":"Zoom","formatted_address":"Bellingham, WA, USA","regions":["Bellingham"],"types":["O"],"notes":"Zoom ID: 486637631","conference_url":"https:\/\/zoom.us\/j\/486637631","coordinates":"48.81878,-122.39805,48.68784,-122.52457","slug":"lets-do-it-1","updated":"2024-01-11","region":"Bellingham","edit_url":"https:\/\/docs.google.com\/spreadsheets\/d\/12PLbLuD88yY0CuMyjCOu56uNOBr-DyRd8630ses5PJQ\/edit#gid=0&range=149:149"},{"name":"Let's Do It","day":1,"time":"09:00","end_time":"10:00","district":"District 25","location":"Zoom","formatted_address":"Bellingham, WA, USA","regions":["Bellingham"],"types":["O"],"notes":"Zoom ID: 486637631","conference_url":"https:\/\/zoom.us\/j\/486637631","coordinates":"48.81878,-122.39805,48.68784,-122.52457","slug":"lets-do-it-2","updated":"2024-01-11","region":"Bellingham","edit_url":"https:\/\/docs.google.com\/spreadsheets\/d\/12PLbLuD88yY0CuMyjCOu56uNOBr-DyRd8630ses5PJQ\/edit#gid=0&range=150:150"},{"name":"Let's Do It","day":2,"time":"09:00","end_time":"10:00","district":"District 25","location":"Zoom","formatted_address":"Bellingham, WA, USA","regions":["Bellingham"],"types":["O"],"notes":"Zoom ID: 486637631","conference_url":"https:\/\/zoom.us\/j\/486637631","coordinates":"48.81878,-122.39805,48.68784,-122.52457","slug":"lets-do-it-3","updated":"2024-01-11","region":"Bellingham","edit_url":"https:\/\/docs.google.com\/spreadsheets\/d\/12PLbLuD88yY0CuMyjCOu56uNOBr-DyRd8630ses5PJQ\/edit#gid=0&range=151:151"},{"name":"Let's Do It","day":3,"time":"09:00","end_time":"10:00","district":"District 25","location":"Zoom","formatted_address":"Bellingham, WA, USA","regions":["Bellingham"],"types":["O"],"notes":"Zoom ID: 486637631","conference_url":"https:\/\/zoom.us\/j\/486637631","coordinates":"48.81878,-122.39805,48.68784,-122.52457","slug":"lets-do-it-4","updated":"2024-01-11","region":"Bellingham","edit_url":"https:\/\/docs.google.com\/spreadsheets\/d\/12PLbLuD88yY0CuMyjCOu56uNOBr-DyRd8630ses5PJQ\/edit#gid=0&range=152:152"},{"name":"Let's Do It","day":4,"time":"09:00","end_time":"10:00","district":"District 25","location":"Zoom","formatted_address":"Bellingham, WA, USA","regions":["Bellingham"],"types":["O"],"notes":"Zoom ID: 486637631","conference_url":"https:\/\/zoom.us\/j\/486637631","coordinates":"48.81878,-122.39805,48.68784,-122.52457","slug":"lets-do-it-5","updated":"2024-01-11","region":"Bellingham","edit_url":"https:\/\/docs.google.com\/spreadsheets\/d\/12PLbLuD88yY0CuMyjCOu56uNOBr-DyRd8630ses5PJQ\/edit#gid=0&range=153:153"},{"name":"Let's Do It","day":5,"time":"09:00","end_time":"10:00","district":"District 25","location":"Zoom","formatted_address":"Bellingham, WA, USA","regions":["Bellingham"],"types":["O"],"notes":"Zoom ID: 486637631","conference_url":"https:\/\/zoom.us\/j\/486637631","coordinates":"48.81878,-122.39805,48.68784,-122.52457","slug":"lets-do-it-6","updated":"2024-01-11","region":"Bellingham","edit_url":"https:\/\/docs.google.com\/spreadsheets\/d\/12PLbLuD88yY0CuMyjCOu56uNOBr-DyRd8630ses5PJQ\/edit#gid=0&range=154:154"},{"name":"Let's Do It","day":6,"time":"09:00","end_time":"10:00","district":"District 25","location":"Zoom","formatted_address":"Bellingham, WA, USA","regions":["Bellingham"],"types":["O"],"notes":"Zoom ID: 486637631","conference_url":"https:\/\/zoom.us\/j\/486637631","coordinates":"48.81878,-122.39805,48.68784,-122.52457","slug":"lets-do-it-7","updated":"2024-01-11","region":"Bellingham","edit_url":"https:\/\/docs.google.com\/spreadsheets\/d\/12PLbLuD88yY0CuMyjCOu56uNOBr-DyRd8630ses5PJQ\/edit#gid=0&range=155:155"},{"name":"Living Sober Online","day":0,"time":"17:30","end_time":"18:45","district":"District 25","location":"Zoom","formatted_address":"Seattle, WA, USA","regions":["Seattle"],"types":["12x12","B","LS","O"],"notes":"Zoom ID: 641 284 772 (no passcode)","conference_url":"https:\/\/us06web.zoom.us\/j\/641284772","coordinates":"47.73417,-122.22443,47.49191,-122.4597","slug":"living-sober-online-6","updated":"2023-12-21","region":"Seattle","edit_url":"https:\/\/docs.google.com\/spreadsheets\/d\/12PLbLuD88yY0CuMyjCOu56uNOBr-DyRd8630ses5PJQ\/edit#gid=0&range=156:156"},{"name":"Living Sober Online","day":1,"time":"17:30","end_time":"18:45","district":"District 25","location":"Zoom","formatted_address":"Seattle, WA, USA","regions":["Seattle"],"types":["12x12","B","LS","O"],"notes":"Zoom ID: 641 284 772 (no passcode)","conference_url":"https:\/\/us06web.zoom.us\/j\/641284772","coordinates":"47.73417,-122.22443,47.49191,-122.4597","slug":"living-sober-online-7","updated":"2023-12-21","region":"Seattle","edit_url":"https:\/\/docs.google.com\/spreadsheets\/d\/12PLbLuD88yY0CuMyjCOu56uNOBr-DyRd8630ses5PJQ\/edit#gid=0&range=157:157"},{"name":"Living Sober Online","day":2,"time":"17:30","end_time":"18:45","district":"District 25","location":"Zoom","formatted_address":"Seattle, WA, USA","regions":["Seattle"],"types":["12x12","B","LS","O"],"notes":"Zoom ID: 641 284 772 (no passcode)","conference_url":"https:\/\/us06web.zoom.us\/j\/641284772","coordinates":"47.73417,-122.22443,47.49191,-122.4597","slug":"living-sober-online","updated":"2023-12-21","region":"Seattle","edit_url":"https:\/\/docs.google.com\/spreadsheets\/d\/12PLbLuD88yY0CuMyjCOu56uNOBr-DyRd8630ses5PJQ\/edit#gid=0&range=158:158"},{"name":"Living Sober Online","day":3,"time":"17:30","end_time":"18:45","district":"District 25","location":"Zoom","formatted_address":"Seattle, WA, USA","regions":["Seattle"],"types":["12x12","B","LS","O"],"notes":"Zoom ID: 641 284 772 (no passcode)","conference_url":"https:\/\/us06web.zoom.us\/j\/641284772","coordinates":"47.73417,-122.22443,47.49191,-122.4597","slug":"living-sober-online-2","updated":"2023-12-21","region":"Seattle","edit_url":"https:\/\/docs.google.com\/spreadsheets\/d\/12PLbLuD88yY0CuMyjCOu56uNOBr-DyRd8630ses5PJQ\/edit#gid=0&range=159:159"},{"name":"Living Sober Online","day":4,"time":"17:30","end_time":"18:45","district":"District 25","location":"Zoom","formatted_address":"Seattle, WA, USA","regions":["Seattle"],"types":["12x12","B","LS","O"],"notes":"Zoom ID: 641 284 772 (no passcode)","conference_url":"https:\/\/us06web.zoom.us\/j\/641284772","coordinates":"47.73417,-122.22443,47.49191,-122.4597","slug":"living-sober-online-3","updated":"2023-12-21","region":"Seattle","edit_url":"https:\/\/docs.google.com\/spreadsheets\/d\/12PLbLuD88yY0CuMyjCOu56uNOBr-DyRd8630ses5PJQ\/edit#gid=0&range=160:160"},{"name":"Living Sober Online","day":5,"time":"17:30","end_time":"18:45","district":"District 25","location":"Zoom","formatted_address":"Seattle, WA, USA","regions":["Seattle"],"types":["12x12","B","LS","O"],"notes":"Zoom ID: 641 284 772 (no passcode)","conference_url":"https:\/\/us06web.zoom.us\/j\/641284772","coordinates":"47.73417,-122.22443,47.49191,-122.4597","slug":"living-sober-online-4","updated":"2023-12-21","region":"Seattle","edit_url":"https:\/\/docs.google.com\/spreadsheets\/d\/12PLbLuD88yY0CuMyjCOu56uNOBr-DyRd8630ses5PJQ\/edit#gid=0&range=161:161"},{"name":"Living Sober Online","day":6,"time":"17:30","end_time":"18:45","district":"District 25","location":"Zoom","formatted_address":"Seattle, WA, USA","regions":["Seattle"],"types":["12x12","B","LS","O"],"notes":"Zoom ID: 641 284 772 (no passcode)","conference_url":"https:\/\/us06web.zoom.us\/j\/641284772","coordinates":"47.73417,-122.22443,47.49191,-122.4597","slug":"living-sober-online-5","updated":"2024-01-05","region":"Seattle","edit_url":"https:\/\/docs.google.com\/spreadsheets\/d\/12PLbLuD88yY0CuMyjCOu56uNOBr-DyRd8630ses5PJQ\/edit#gid=0&range=162:162"},{"name":"Nameless Bunch of Drunk International (NBDI)","day":0,"time":"07:00","end_time":"08:00","district":"District 25","location":"Zoom","formatted_address":"Bellevue, WA, USA","regions":["Bellevue"],"types":["D","O"],"notes":"Zoom ID: 950 676 929 81 (no passcode)","conference_url":"https:\/\/zoom.us\/j\/95067692981","coordinates":"47.6607,-122.07933,47.53461,-122.22293","slug":"nameless-bunch-of-drunk-international-nbdi-1","updated":"2024-01-11","region":"Bellevue","edit_url":"https:\/\/docs.google.com\/spreadsheets\/d\/12PLbLuD88yY0CuMyjCOu56uNOBr-DyRd8630ses5PJQ\/edit#gid=0&range=163:163"},{"name":"Nameless Bunch of Drunk International (NBDI)","day":0,"time":"17:30","end_time":"18:30","district":"District 25","location":"Zoom","formatted_address":"Bellevue, WA, USA","regions":["Bellevue"],"types":["B","O"],"notes":"Zoom ID: 950 676 929 81 (no passcode)","conference_url":"https:\/\/zoom.us\/j\/95067692981","coordinates":"47.6607,-122.07933,47.53461,-122.22293","slug":"nameless-bunch-of-drunk-international-nbdi-2","updated":"2024-01-11","region":"Bellevue","edit_url":"https:\/\/docs.google.com\/spreadsheets\/d\/12PLbLuD88yY0CuMyjCOu56uNOBr-DyRd8630ses5PJQ\/edit#gid=0&range=164:164"},{"name":"Nameless Bunch of Drunk International (NBDI)","day":1,"time":"07:00","end_time":"08:00","district":"District 25","location":"Zoom","formatted_address":"Bellevue, WA, USA","regions":["Bellevue"],"types":["D","O"],"notes":"Zoom ID: 950 676 929 81 (no passcode)","conference_url":"https:\/\/zoom.us\/j\/95067692981","coordinates":"47.6607,-122.07933,47.53461,-122.22293","slug":"nameless-bunch-of-drunk-international-nbdi-3","updated":"2024-01-11","region":"Bellevue","edit_url":"https:\/\/docs.google.com\/spreadsheets\/d\/12PLbLuD88yY0CuMyjCOu56uNOBr-DyRd8630ses5PJQ\/edit#gid=0&range=165:165"},{"name":"Nameless Bunch of Drunk International (NBDI)","day":1,"time":"17:30","end_time":"18:30","district":"District 25","location":"Zoom","formatted_address":"Bellevue, WA, USA","regions":["Bellevue"],"types":["12x12","O"],"notes":"Zoom ID: 950 676 929 81 (no passcode)","conference_url":"https:\/\/zoom.us\/j\/95067692981","coordinates":"47.6607,-122.07933,47.53461,-122.22293","slug":"nameless-bunch-of-drunk-international-nbdi-4","updated":"2024-01-11","region":"Bellevue","edit_url":"https:\/\/docs.google.com\/spreadsheets\/d\/12PLbLuD88yY0CuMyjCOu56uNOBr-DyRd8630ses5PJQ\/edit#gid=0&range=166:166"},{"name":"Nameless Bunch of Drunk International (NBDI)","day":2,"time":"07:00","end_time":"08:00","district":"District 25","location":"Zoom","formatted_address":"Bellevue, WA, USA","regions":["Bellevue"],"types":["D","O"],"notes":"Zoom ID: 950 676 929 81 (no passcode)","conference_url":"https:\/\/zoom.us\/j\/95067692981","coordinates":"47.6607,-122.07933,47.53461,-122.22293","slug":"nameless-bunch-of-drunk-international-nbdi-5","updated":"2024-01-11","region":"Bellevue","edit_url":"https:\/\/docs.google.com\/spreadsheets\/d\/12PLbLuD88yY0CuMyjCOu56uNOBr-DyRd8630ses5PJQ\/edit#gid=0&range=167:167"},{"name":"Nameless Bunch of Drunk International (NBDI)","day":2,"time":"17:30","end_time":"18:30","district":"District 25","location":"Zoom","formatted_address":"Bellevue, WA, USA","regions":["Bellevue"],"types":["D","O"],"notes":"Zoom ID: 950 676 929 81 (no passcode)","conference_url":"https:\/\/zoom.us\/j\/95067692981","coordinates":"47.6607,-122.07933,47.53461,-122.22293","slug":"nameless-bunch-of-drunk-international-nbdi-6","updated":"2024-01-11","region":"Bellevue","edit_url":"https:\/\/docs.google.com\/spreadsheets\/d\/12PLbLuD88yY0CuMyjCOu56uNOBr-DyRd8630ses5PJQ\/edit#gid=0&range=168:168"},{"name":"Nameless Bunch of Drunk International (NBDI)","day":3,"time":"07:00","end_time":"08:00","district":"District 25","location":"Zoom","formatted_address":"Bellevue, WA, USA","regions":["Bellevue"],"types":["D","O"],"notes":"Zoom ID: 950 676 929 81 (no passcode)","conference_url":"https:\/\/zoom.us\/j\/95067692981","coordinates":"47.6607,-122.07933,47.53461,-122.22293","slug":"nameless-bunch-of-drunk-international-nbdi-7","updated":"2024-01-11","region":"Bellevue","edit_url":"https:\/\/docs.google.com\/spreadsheets\/d\/12PLbLuD88yY0CuMyjCOu56uNOBr-DyRd8630ses5PJQ\/edit#gid=0&range=169:169"},{"name":"Nameless Bunch of Drunk International (NBDI)","day":3,"time":"17:30","end_time":"18:30","district":"District 25","location":"Zoom","formatted_address":"Bellevue, WA, USA","regions":["Bellevue"],"types":["D","O"],"notes":"Zoom ID: 950 676 929 81 (no passcode)","conference_url":"https:\/\/zoom.us\/j\/95067692981","coordinates":"47.6607,-122.07933,47.53461,-122.22293","slug":"nameless-bunch-of-drunk-international-nbdi-8","updated":"2024-01-11","region":"Bellevue","edit_url":"https:\/\/docs.google.com\/spreadsheets\/d\/12PLbLuD88yY0CuMyjCOu56uNOBr-DyRd8630ses5PJQ\/edit#gid=0&range=170:170"},{"name":"Nameless Bunch of Drunk International (NBDI)","day":4,"time":"07:00","end_time":"08:00","district":"District 25","location":"Zoom","formatted_address":"Bellevue, WA, USA","regions":["Bellevue"],"types":["D","O"],"notes":"Zoom ID: 950 676 929 81 (no passcode)","conference_url":"https:\/\/zoom.us\/j\/95067692981","coordinates":"47.6607,-122.07933,47.53461,-122.22293","slug":"nameless-bunch-of-drunk-international-nbdi-9","updated":"2024-01-11","region":"Bellevue","edit_url":"https:\/\/docs.google.com\/spreadsheets\/d\/12PLbLuD88yY0CuMyjCOu56uNOBr-DyRd8630ses5PJQ\/edit#gid=0&range=171:171"},{"name":"Nameless Bunch of Drunk International (NBDI)","day":4,"time":"17:30","end_time":"18:30","district":"District 25","location":"Zoom","formatted_address":"Bellevue, WA, USA","regions":["Bellevue"],"types":["D","O"],"notes":"Zoom ID: 950 676 929 81 (no passcode)","conference_url":"https:\/\/zoom.us\/j\/95067692981","coordinates":"47.6607,-122.07933,47.53461,-122.22293","slug":"nameless-bunch-of-drunk-international-nbdi-10","updated":"2024-01-11","region":"Bellevue","edit_url":"https:\/\/docs.google.com\/spreadsheets\/d\/12PLbLuD88yY0CuMyjCOu56uNOBr-DyRd8630ses5PJQ\/edit#gid=0&range=172:172"},{"name":"Nameless Bunch of Drunk International (NBDI)","day":5,"time":"07:00","end_time":"08:00","district":"District 25","location":"Zoom","formatted_address":"Bellevue, WA, USA","regions":["Bellevue"],"types":["D","O"],"notes":"Zoom ID: 950 676 929 81 (no passcode)","conference_url":"https:\/\/zoom.us\/j\/95067692981","coordinates":"47.6607,-122.07933,47.53461,-122.22293","slug":"nameless-bunch-of-drunk-international-nbdi-11","updated":"2024-01-11","region":"Bellevue","edit_url":"https:\/\/docs.google.com\/spreadsheets\/d\/12PLbLuD88yY0CuMyjCOu56uNOBr-DyRd8630ses5PJQ\/edit#gid=0&range=173:173"},{"name":"Nameless Bunch of Drunk International (NBDI)","day":5,"time":"17:30","end_time":"18:30","district":"District 25","location":"Zoom","formatted_address":"Bellevue, WA, USA","regions":["Bellevue"],"types":["D","O"],"notes":"Zoom ID: 950 676 929 81 (no passcode)","conference_url":"https:\/\/zoom.us\/j\/95067692981","coordinates":"47.6607,-122.07933,47.53461,-122.22293","slug":"nameless-bunch-of-drunk-international-nbdi-12","updated":"2024-01-11","region":"Bellevue","edit_url":"https:\/\/docs.google.com\/spreadsheets\/d\/12PLbLuD88yY0CuMyjCOu56uNOBr-DyRd8630ses5PJQ\/edit#gid=0&range=174:174"},{"name":"Nameless Bunch of Drunk International (NBDI)","day":6,"time":"07:00","end_time":"08:00","district":"District 25","location":"Zoom","formatted_address":"Bellevue, WA, USA","regions":["Bellevue"],"types":["D","O"],"notes":"Zoom ID: 950 676 929 81 (no passcode)","conference_url":"https:\/\/zoom.us\/j\/95067692981","coordinates":"47.6607,-122.07933,47.53461,-122.22293","slug":"nameless-bunch-of-drunk-international-nbdi-13","updated":"2024-01-11","region":"Bellevue","edit_url":"https:\/\/docs.google.com\/spreadsheets\/d\/12PLbLuD88yY0CuMyjCOu56uNOBr-DyRd8630ses5PJQ\/edit#gid=0&range=175:175"},{"name":"Nameless Bunch of Drunk International (NBDI)","day":6,"time":"17:30","end_time":"18:30","district":"District 25","location":"Zoom","formatted_address":"Bellevue, WA, USA","regions":["Bellevue"],"types":["D","O"],"notes":"Zoom ID: 950 676 929 81 (no passcode)","conference_url":"https:\/\/zoom.us\/j\/95067692981","coordinates":"47.6607,-122.07933,47.53461,-122.22293","slug":"nameless-bunch-of-drunk-international-nbdi-14","updated":"2024-01-11","region":"Bellevue","edit_url":"https:\/\/docs.google.com\/spreadsheets\/d\/12PLbLuD88yY0CuMyjCOu56uNOBr-DyRd8630ses5PJQ\/edit#gid=0&range=176:176"},{"name":"NightCap","day":0,"time":"22:00","end_time":"23:15","district":"District 25","location":"Zoom","formatted_address":"Seattle, WA, USA","regions":["Seattle"],"types":["SP"],"notes":"Zoom ID: 4643088229, Passcode: 654321","conference_url":"https:\/\/zoom.us\/j\/4643088229","slug":"night-cap-zoom-1","updated":"2024-01-25","region":"Seattle","edit_url":"https:\/\/docs.google.com\/spreadsheets\/d\/12PLbLuD88yY0CuMyjCOu56uNOBr-DyRd8630ses5PJQ\/edit#gid=0&range=177:177"},{"name":"NightCap","day":1,"time":"22:00","end_time":"23:15","district":"District 25","location":"Zoom","formatted_address":"Seattle, WA, USA","regions":["Seattle"],"types":["O"],"notes":"Zoom ID: 4643088229, Passcode: 654321","conference_url":"https:\/\/zoom.us\/j\/4643088229","slug":"night-cap-zoom-2","updated":"2024-01-21","region":"Seattle","edit_url":"https:\/\/docs.google.com\/spreadsheets\/d\/12PLbLuD88yY0CuMyjCOu56uNOBr-DyRd8630ses5PJQ\/edit#gid=0&range=178:178"},{"name":"NightCap","day":2,"time":"22:00","end_time":"23:15","district":"District 25","location":"Zoom","formatted_address":"Seattle, WA, USA","regions":["Seattle"],"types":["O"],"notes":"Zoom ID: 4643088229, Passcode: 654321","conference_url":"https:\/\/zoom.us\/j\/4643088229","slug":"night-cap-zoom-3","updated":"2024-01-21","region":"Seattle","edit_url":"https:\/\/docs.google.com\/spreadsheets\/d\/12PLbLuD88yY0CuMyjCOu56uNOBr-DyRd8630ses5PJQ\/edit#gid=0&range=179:179"},{"name":"NightCap","day":3,"time":"22:00","end_time":"23:15","district":"District 25","location":"Zoom","formatted_address":"Seattle, WA, USA","regions":["Seattle"],"types":["O"],"notes":"Zoom ID: 4643088229, Passcode: 654321","conference_url":"https:\/\/zoom.us\/j\/4643088229","slug":"night-cap-zoom-8","updated":"2024-01-25","region":"Seattle","edit_url":"https:\/\/docs.google.com\/spreadsheets\/d\/12PLbLuD88yY0CuMyjCOu56uNOBr-DyRd8630ses5PJQ\/edit#gid=0&range=180:180"},{"name":"NightCap","day":4,"time":"12:00","end_time":"13:00","district":"District 25","location":"Zoom","formatted_address":"Seattle, WA, USA","regions":["Seattle"],"types":["W"],"notes":"Zoom ID: 4643088229, Passcode: 654321","conference_url":"https:\/\/zoom.us\/j\/4643088229","slug":"night-cap-zoom-4","updated":"2024-01-25","region":"Seattle","edit_url":"https:\/\/docs.google.com\/spreadsheets\/d\/12PLbLuD88yY0CuMyjCOu56uNOBr-DyRd8630ses5PJQ\/edit#gid=0&range=181:181"},{"name":"NightCap","day":4,"time":"22:00","end_time":"23:15","district":"District 25","location":"Zoom","formatted_address":"Seattle, WA, USA","regions":["Seattle"],"types":["O"],"notes":"Zoom ID: 4643088229, Passcode: 654321","conference_url":"https:\/\/zoom.us\/j\/4643088229","slug":"night-cap-zoom-5","updated":"2024-01-21","region":"Seattle","edit_url":"https:\/\/docs.google.com\/spreadsheets\/d\/12PLbLuD88yY0CuMyjCOu56uNOBr-DyRd8630ses5PJQ\/edit#gid=0&range=182:182"},{"name":"NightCap","day":5,"time":"22:00","end_time":"23:15","district":"District 25","location":"Zoom","formatted_address":"Seattle, WA, USA","regions":["Seattle"],"types":["O"],"notes":"Zoom ID: 4643088229, Passcode: 654321","conference_url":"https:\/\/zoom.us\/j\/4643088229","slug":"night-cap-zoom-6","updated":"2024-01-21","region":"Seattle","edit_url":"https:\/\/docs.google.com\/spreadsheets\/d\/12PLbLuD88yY0CuMyjCOu56uNOBr-DyRd8630ses5PJQ\/edit#gid=0&range=183:183"},{"name":"NightCap","day":6,"time":"22:00","end_time":"23:15","district":"District 25","location":"Zoom","formatted_address":"Seattle, WA, USA","regions":["Seattle"],"types":["O"],"notes":"Zoom ID: 4643088229, Passcode: 654321","conference_url":"https:\/\/zoom.us\/j\/4643088229","slug":"night-cap-zoom-7","updated":"2024-01-21","region":"Seattle","edit_url":"https:\/\/docs.google.com\/spreadsheets\/d\/12PLbLuD88yY0CuMyjCOu56uNOBr-DyRd8630ses5PJQ\/edit#gid=0&range=184:184"},{"name":"Noonaroos","day":0,"time":"12:00","end_time":"13:00","district":"District 25","location":"Zoom","formatted_address":"Seattle, WA, USA","regions":["Seattle"],"types":["O"],"notes":"Zoom ID: 96716694020","conference_url":"https:\/\/us06web.zoom.us\/j\/96716694020","coordinates":"47.73417,-122.22443,47.49191,-122.4597","slug":"noonaroos-1","updated":"2024-01-11","region":"Seattle","edit_url":"https:\/\/docs.google.com\/spreadsheets\/d\/12PLbLuD88yY0CuMyjCOu56uNOBr-DyRd8630ses5PJQ\/edit#gid=0&range=185:185"},{"name":"Noonaroos","day":1,"time":"12:00","end_time":"13:00","district":"District 25","location":"Zoom","formatted_address":"Seattle, WA, USA","regions":["Seattle"],"types":["O"],"notes":"Zoom ID: 96716694020","conference_url":"https:\/\/us06web.zoom.us\/j\/96716694020","coordinates":"47.73417,-122.22443,47.49191,-122.4597","slug":"noonaroos-2","updated":"2024-01-11","region":"Seattle","edit_url":"https:\/\/docs.google.com\/spreadsheets\/d\/12PLbLuD88yY0CuMyjCOu56uNOBr-DyRd8630ses5PJQ\/edit#gid=0&range=186:186"},{"name":"Noonaroos","day":2,"time":"12:00","end_time":"13:00","district":"District 25","location":"Zoom","formatted_address":"Seattle, WA, USA","regions":["Seattle"],"types":["O"],"notes":"Zoom ID: 96716694020","conference_url":"https:\/\/us06web.zoom.us\/j\/96716694020","coordinates":"47.73417,-122.22443,47.49191,-122.4597","slug":"noonaroos-3","updated":"2024-01-11","region":"Seattle","edit_url":"https:\/\/docs.google.com\/spreadsheets\/d\/12PLbLuD88yY0CuMyjCOu56uNOBr-DyRd8630ses5PJQ\/edit#gid=0&range=187:187"},{"name":"Noonaroos","day":3,"time":"12:00","end_time":"13:00","district":"District 25","location":"Zoom","formatted_address":"Seattle, WA, USA","regions":["Seattle"],"types":["O"],"notes":"Zoom ID: 96716694020","conference_url":"https:\/\/us06web.zoom.us\/j\/96716694020","coordinates":"47.73417,-122.22443,47.49191,-122.4597","slug":"noonaroos-4","updated":"2024-01-11","region":"Seattle","edit_url":"https:\/\/docs.google.com\/spreadsheets\/d\/12PLbLuD88yY0CuMyjCOu56uNOBr-DyRd8630ses5PJQ\/edit#gid=0&range=188:188"},{"name":"Noonaroos","day":4,"time":"12:00","end_time":"13:00","district":"District 25","location":"Zoom","formatted_address":"Seattle, WA, USA","regions":["Seattle"],"types":["O"],"notes":"Zoom ID: 96716694020","conference_url":"https:\/\/us06web.zoom.us\/j\/96716694020","coordinates":"47.73417,-122.22443,47.49191,-122.4597","slug":"noonaroos-5","updated":"2024-01-11","region":"Seattle","edit_url":"https:\/\/docs.google.com\/spreadsheets\/d\/12PLbLuD88yY0CuMyjCOu56uNOBr-DyRd8630ses5PJQ\/edit#gid=0&range=189:189"},{"name":"Noonaroos","day":5,"time":"12:00","end_time":"13:00","district":"District 25","location":"Zoom","formatted_address":"Seattle, WA, USA","regions":["Seattle"],"types":["O"],"notes":"Zoom ID: 96716694020","conference_url":"https:\/\/us06web.zoom.us\/j\/96716694020","coordinates":"47.73417,-122.22443,47.49191,-122.4597","slug":"noonaroos-6","updated":"2024-01-11","region":"Seattle","edit_url":"https:\/\/docs.google.com\/spreadsheets\/d\/12PLbLuD88yY0CuMyjCOu56uNOBr-DyRd8630ses5PJQ\/edit#gid=0&range=190:190"},{"name":"Noonaroos","day":6,"time":"12:00","end_time":"13:00","district":"District 25","location":"Zoom","formatted_address":"Seattle, WA, USA","regions":["Seattle"],"types":["O"],"notes":"Zoom ID: 96716694020","conference_url":"https:\/\/us06web.zoom.us\/j\/96716694020","coordinates":"47.73417,-122.22443,47.49191,-122.4597","slug":"noonaroos-7","updated":"2024-01-29","region":"Seattle","edit_url":"https:\/\/docs.google.com\/spreadsheets\/d\/12PLbLuD88yY0CuMyjCOu56uNOBr-DyRd8630ses5PJQ\/edit#gid=0&range=191:191"},{"name":"Oasis Zoom","day":4,"time":"10:00","end_time":"11:00","district":"District 25","location":"Zoom","formatted_address":"Olympia, WA, USA","regions":["Olympia"],"types":["O"],"notes":"Meeting ID: 452 311 923, Passcode: 62747","conference_url":"https:\/\/zoom.us\/j\/452311923","coordinates":"47.07809,-122.82314,47.00058,-122.9646","slug":"zoom-oasis","updated":"2024-05-30","region":"Olympia","edit_url":"https:\/\/docs.google.com\/spreadsheets\/d\/12PLbLuD88yY0CuMyjCOu56uNOBr-DyRd8630ses5PJQ\/edit#gid=0&range=192:192"},{"name":"On Awakening","day":6,"time":"07:00","end_time":"08:00","district":"District 25","location":"Zoom","formatted_address":"Olympia, WA, USA","regions":["Olympia"],"types":["O"],"notes":"Zoom ID: 392428488, Passcode: 101112","conference_url":"https:\/\/us02web.zoom.us\/j\/392428488","coordinates":"47.07809,-122.82314,47.00058,-122.9646","slug":"on-awakening","updated":"2024-01-31","region":"Olympia","edit_url":"https:\/\/docs.google.com\/spreadsheets\/d\/12PLbLuD88yY0CuMyjCOu56uNOBr-DyRd8630ses5PJQ\/edit#gid=0&range=193:193"},{"name":"Online Surrender at Seven","day":2,"time":"19:00","end_time":"20:00","district":"District 25","location":"Zoom","formatted_address":"Seattle, WA, USA","regions":["Seattle"],"types":["B","W"],"notes":"Zoom ID: 5587987959","conference_url":"https:\/\/us02web.zoom.us\/j\/5587987959","coordinates":"47.73417,-122.22443,47.49191,-122.4597","slug":"online-surrender-at-seven-women","updated":"2025-11-19","region":"Seattle","edit_url":"https:\/\/docs.google.com\/spreadsheets\/d\/12PLbLuD88yY0CuMyjCOu56uNOBr-DyRd8630ses5PJQ\/edit#gid=0&range=194:194"},{"name":"Practice These Priniciples Fourth Dimension","day":0,"time":"07:00","end_time":"08:00","district":"District 25","location":"Zoom","formatted_address":"Seattle, WA, USA","regions":["Seattle"],"types":["C"],"notes":"Zoom ID:2612052842","conference_url":"https:\/\/zoom.us\/j\/2612052842","slug":"practice-these-priniciples-fourth-dimension","updated":"2025-01-09","region":"Seattle","edit_url":"https:\/\/docs.google.com\/spreadsheets\/d\/12PLbLuD88yY0CuMyjCOu56uNOBr-DyRd8630ses5PJQ\/edit#gid=0&range=195:195"},{"name":"Practice These Priniciples Fourth Dimension","day":1,"time":"07:00","end_time":"08:00","district":"District 25","location":"Zoom","formatted_address":"Seattle, WA, USA","regions":["Seattle"],"types":["C"],"notes":"Zoom ID:2612052842","conference_url":"https:\/\/zoom.us\/j\/2612052842","slug":"practice-these-priniciples-fourth-dimension-1","updated":"2025-01-09","region":"Seattle","edit_url":"https:\/\/docs.google.com\/spreadsheets\/d\/12PLbLuD88yY0CuMyjCOu56uNOBr-DyRd8630ses5PJQ\/edit#gid=0&range=196:196"},{"name":"Practice These Priniciples Fourth Dimension","day":2,"time":"07:00","end_time":"08:00","district":"District 25","location":"Zoom","formatted_address":"Seattle, WA, USA","regions":["Seattle"],"types":["C"],"notes":"Zoom ID:2612052842","conference_url":"https:\/\/zoom.us\/j\/2612052842","slug":"practice-these-priniciples-fourth-dimension-2","updated":"2025-01-09","region":"Seattle","edit_url":"https:\/\/docs.google.com\/spreadsheets\/d\/12PLbLuD88yY0CuMyjCOu56uNOBr-DyRd8630ses5PJQ\/edit#gid=0&range=197:197"},{"name":"Practice These Priniciples Fourth Dimension","day":3,"time":"07:00","end_time":"08:00","district":"District 25","location":"Zoom","formatted_address":"Seattle, WA, USA","regions":["Seattle"],"types":["C"],"notes":"Zoom ID:2612052842","conference_url":"https:\/\/zoom.us\/j\/2612052842","slug":"practice-these-priniciples-fourth-dimension-3","updated":"2025-01-09","region":"Seattle","edit_url":"https:\/\/docs.google.com\/spreadsheets\/d\/12PLbLuD88yY0CuMyjCOu56uNOBr-DyRd8630ses5PJQ\/edit#gid=0&range=198:198"},{"name":"Practice These Priniciples Fourth Dimension","day":4,"time":"07:00","end_time":"08:00","district":"District 25","location":"Zoom","formatted_address":"Seattle, WA, USA","regions":["Seattle"],"types":["C"],"notes":"Zoom ID:2612052842","conference_url":"https:\/\/zoom.us\/j\/2612052842","slug":"practice-these-priniciples-fourth-dimension-4","updated":"2025-01-09","region":"Seattle","edit_url":"https:\/\/docs.google.com\/spreadsheets\/d\/12PLbLuD88yY0CuMyjCOu56uNOBr-DyRd8630ses5PJQ\/edit#gid=0&range=199:199"},{"name":"Practice These Priniciples Fourth Dimension","day":5,"time":"07:00","end_time":"08:00","district":"District 25","location":"Zoom","formatted_address":"Seattle, WA, USA","regions":["Seattle"],"types":["C"],"notes":"Zoom ID:2612052842","conference_url":"https:\/\/zoom.us\/j\/2612052842","slug":"practice-these-priniciples-fourth-dimension-5","updated":"2025-01-09","region":"Seattle","edit_url":"https:\/\/docs.google.com\/spreadsheets\/d\/12PLbLuD88yY0CuMyjCOu56uNOBr-DyRd8630ses5PJQ\/edit#gid=0&range=200:200"},{"name":"Practice These Priniciples Fourth Dimension","day":6,"time":"07:00","end_time":"08:00","district":"District 25","location":"Zoom","formatted_address":"Seattle, WA, USA","regions":["Seattle"],"types":["C"],"notes":"Zoom ID:2612052842","conference_url":"https:\/\/zoom.us\/j\/2612052842","slug":"practice-these-priniciples-fourth-dimension-6","updated":"2025-01-09","region":"Seattle","edit_url":"https:\/\/docs.google.com\/spreadsheets\/d\/12PLbLuD88yY0CuMyjCOu56uNOBr-DyRd8630ses5PJQ\/edit#gid=0&range=201:201"},{"name":"Resentment and A Coffee Pot","day":6,"time":"18:30","end_time":"19:30","district":"District 25","location":"Zoom","formatted_address":"Seattle, WA, USA","regions":["Seattle"],"types":["O"],"notes":"Zoom ID: 81010735366, Passcode: RAACP","conference_url":"https:\/\/us04web.zoom.us\/j\/81010735366","slug":"a-resentment-and-a-coffee-pot","updated":"2024-09-11","region":"Seattle","edit_url":"https:\/\/docs.google.com\/spreadsheets\/d\/12PLbLuD88yY0CuMyjCOu56uNOBr-DyRd8630ses5PJQ\/edit#gid=0&range=202:202"},{"name":"Saturday Literature Study","day":6,"time":"15:00","end_time":"16:00","district":"District 25","location":"Zoom","formatted_address":"Seattle, WA, USA","regions":["Seattle"],"types":["LIT","O"],"notes":"Zoom ID: 863 4522 6685; Passcode: serenity","conference_url":"https:\/\/us02web.zoom.us\/j\/86345226685?pwd=bHVncDdaWkdaZmZaczFEbkZqSk91Zz09","coordinates":"47.73417,-122.22443,47.49191,-122.4597","slug":"saturday-literature-study","updated":"2025-12-21","region":"Seattle","edit_url":"https:\/\/docs.google.com\/spreadsheets\/d\/12PLbLuD88yY0CuMyjCOu56uNOBr-DyRd8630ses5PJQ\/edit#gid=0&range=203:203"},{"name":"Saturday Sisters Womens Meeting","day":6,"time":"08:00","end_time":"09:00","location":"Zoom","formatted_address":"Seattle, WA, USA","regions":["Seattle"],"types":["O","W"],"notes":"Zoom ID: 862 0531 3911, Passcode: 448816","conference_url":"https:\/\/us02web.zoom.us\/j\/86205313911","slug":"ssaturday-sisters-womens-meeting","updated":"2024-10-09","region":"Seattle","edit_url":"https:\/\/docs.google.com\/spreadsheets\/d\/12PLbLuD88yY0CuMyjCOu56uNOBr-DyRd8630ses5PJQ\/edit#gid=0&range=204:204"},{"name":"Serenity Break Online","day":1,"time":"12:00","end_time":"13:00","district":"District 25","location":"Zoom","formatted_address":"Bellevue, WA, USA","regions":["Bellevue"],"types":["O"],"notes":"Zoom ID: 644130242, Passcode: 615157","conference_url":"https:\/\/us02web.zoom.us\/j\/4511739751?pwd=THQwWnF0NFd3RlpiZzRWNWgyRXRvUT09","coordinates":"47.6607,-122.07933,47.53461,-122.22293","slug":"serenity-break-online-1","updated":"2024-01-11","region":"Bellevue","edit_url":"https:\/\/docs.google.com\/spreadsheets\/d\/12PLbLuD88yY0CuMyjCOu56uNOBr-DyRd8630ses5PJQ\/edit#gid=0&range=205:205"},{"name":"Serenity Break Online","day":2,"time":"12:00","end_time":"13:00","district":"District 25","location":"Zoom","formatted_address":"Bellevue, WA, USA","regions":["Bellevue"],"types":["O"],"notes":"Zoom ID: 644130242, Passcode: 615157","conference_url":"https:\/\/us02web.zoom.us\/j\/4511739751?pwd=THQwWnF0NFd3RlpiZzRWNWgyRXRvUT09","coordinates":"47.6607,-122.07933,47.53461,-122.22293","slug":"serenity-break-online-2","updated":"2024-01-11","region":"Bellevue","edit_url":"https:\/\/docs.google.com\/spreadsheets\/d\/12PLbLuD88yY0CuMyjCOu56uNOBr-DyRd8630ses5PJQ\/edit#gid=0&range=206:206"},{"name":"Serenity Break Online","day":3,"time":"12:00","end_time":"13:00","district":"District 25","location":"Zoom","formatted_address":"Bellevue, WA, USA","regions":["Bellevue"],"types":["M","O"],"notes":"Zoom ID: 5703476090, Passcode: 79048","conference_url":"https:\/\/us02web.zoom.us\/j\/5703476090?pwd=a2FSQTZHUGhjbVR6cWdNU0c4OG0xZz09","coordinates":"47.6607,-122.07933,47.53461,-122.22293","slug":"serenity-break-online-3","updated":"2024-01-11","region":"Bellevue","edit_url":"https:\/\/docs.google.com\/spreadsheets\/d\/12PLbLuD88yY0CuMyjCOu56uNOBr-DyRd8630ses5PJQ\/edit#gid=0&range=207:207"},{"name":"Serenity Break Online","day":3,"time":"12:00","end_time":"13:00","district":"District 25","location":"Zoom","formatted_address":"Bellevue, WA, USA","regions":["Bellevue"],"types":["O","W"],"notes":"Zoom ID: 9205195225, Passcode: 530530","conference_url":"https:\/\/us02web.zoom.us\/j\/9205195225?pwd=aDN1c1ZWQTBuREUrdEt4RXhkUXRsQT09","coordinates":"47.6607,-122.07933,47.53461,-122.22293","slug":"serenity-break-online-4","updated":"2024-01-11","region":"Bellevue","edit_url":"https:\/\/docs.google.com\/spreadsheets\/d\/12PLbLuD88yY0CuMyjCOu56uNOBr-DyRd8630ses5PJQ\/edit#gid=0&range=208:208"},{"name":"Serenity Break Online","day":4,"time":"12:00","end_time":"13:00","district":"District 25","location":"Zoom","formatted_address":"Bellevue, WA, USA","regions":["Bellevue"],"types":["O"],"notes":"Zoom ID: 644130242, Passcode: 615157","conference_url":"https:\/\/us02web.zoom.us\/j\/4511739751?pwd=THQwWnF0NFd3RlpiZzRWNWgyRXRvUT09","coordinates":"47.6607,-122.07933,47.53461,-122.22293","slug":"serenity-break-online-5","updated":"2024-01-11","region":"Bellevue","edit_url":"https:\/\/docs.google.com\/spreadsheets\/d\/12PLbLuD88yY0CuMyjCOu56uNOBr-DyRd8630ses5PJQ\/edit#gid=0&range=209:209"},{"name":"Serenity Break Online","day":5,"time":"12:00","end_time":"13:00","district":"District 25","location":"Zoom","formatted_address":"Bellevue, WA, USA","regions":["Bellevue"],"types":["O"],"notes":"Zoom ID: 644130242, Passcode: 615157","conference_url":"https:\/\/us02web.zoom.us\/j\/4511739751?pwd=THQwWnF0NFd3RlpiZzRWNWgyRXRvUT09","coordinates":"47.6607,-122.07933,47.53461,-122.22293","slug":"serenity-break-online-6","updated":"2025-01-08","region":"Bellevue","edit_url":"https:\/\/docs.google.com\/spreadsheets\/d\/12PLbLuD88yY0CuMyjCOu56uNOBr-DyRd8630ses5PJQ\/edit#gid=0&range=210:210"},{"name":"Serenity Break Online","day":6,"time":"09:00","end_time":"10:00","district":"District 25","location":"Zoom","formatted_address":"Bellevue, WA, USA","regions":["Bellevue"],"types":["O"],"notes":"Zoom ID: 644130242, Passcode: 615157","conference_url":"https:\/\/us02web.zoom.us\/j\/4511739751?pwd=THQwWnF0NFd3RlpiZzRWNWgyRXRvUT09","coordinates":"47.6607,-122.07933,47.53461,-122.22293","slug":"serenity-break-online-7","updated":"2025-01-08","region":"Bellevue","edit_url":"https:\/\/docs.google.com\/spreadsheets\/d\/12PLbLuD88yY0CuMyjCOu56uNOBr-DyRd8630ses5PJQ\/edit#gid=0&range=211:211"},{"name":"Shop Group at Large","day":1,"time":"19:00","end_time":"20:15","district":"District 25","location":"Zoom","formatted_address":"Tacoma, WA, USA","regions":["Tacoma"],"types":["O"],"notes":"Zoom ID:847132448,Passcode:005010","conference_url":"https:\/\/us02web.zoom.us\/j\/847132448","coordinates":"47.33208,-122.34838,47.16681,-122.56544","slug":"shop-group-at-large","updated":"2025-01-09","region":"Tacoma","edit_url":"https:\/\/docs.google.com\/spreadsheets\/d\/12PLbLuD88yY0CuMyjCOu56uNOBr-DyRd8630ses5PJQ\/edit#gid=0&range=212:212"},{"name":"Shop Group at Large","day":2,"time":"19:00","end_time":"20:15","district":"District 25","location":"Zoom","formatted_address":"Tacoma, WA, USA","regions":["Tacoma"],"types":["W"],"notes":"Zoom ID:847132448,Passcode:005010","conference_url":"https:\/\/us02web.zoom.us\/j\/847132448","coordinates":"47.33208,-122.34838,47.16681,-122.56544","slug":"shop-group-at-large-1","updated":"2025-01-08","region":"Tacoma","edit_url":"https:\/\/docs.google.com\/spreadsheets\/d\/12PLbLuD88yY0CuMyjCOu56uNOBr-DyRd8630ses5PJQ\/edit#gid=0&range=213:213"},{"name":"Shop Group at Large","day":4,"time":"19:00","end_time":"20:15","district":"District 25","location":"Zoom","formatted_address":"Tacoma, WA, USA","regions":["Tacoma"],"types":["O"],"notes":"Zoom ID:847132448,Passcode:005010","conference_url":"https:\/\/us02web.zoom.us\/j\/847132448","coordinates":"47.33208,-122.34838,47.16681,-122.56544","slug":"shop-group-at-large-2","updated":"2025-01-08","region":"Tacoma","edit_url":"https:\/\/docs.google.com\/spreadsheets\/d\/12PLbLuD88yY0CuMyjCOu56uNOBr-DyRd8630ses5PJQ\/edit#gid=0&range=214:214"},{"name":"Shivering Denizens - Daily Steps","day":0,"time":"06:00","end_time":"07:00","district":"District 25","location":"Zoom","formatted_address":"Bremerton, WA, USA","regions":["Bremerton"],"types":["12x12","O"],"notes":"Zoom ID: 872 329 5052; Passcode: 151","conference_url":"https:\/\/us02web.zoom.us\/j\/87232950952","coordinates":"47.6069,-122.60216,47.50173,-122.80458","slug":"shivering-denizens-daily-steps-7","updated":"2023-12-21","region":"Bremerton","edit_url":"https:\/\/docs.google.com\/spreadsheets\/d\/12PLbLuD88yY0CuMyjCOu56uNOBr-DyRd8630ses5PJQ\/edit#gid=0&range=215:215"},{"name":"Shivering Denizens - Daily Steps","day":1,"time":"06:00","end_time":"07:00","district":"District 25","location":"Zoom","formatted_address":"Bremerton, WA, USA","regions":["Bremerton"],"types":["12x12","O"],"notes":"Zoom ID: 872 329 5052; Passcode: 151","conference_url":"https:\/\/us02web.zoom.us\/j\/87232950952","coordinates":"47.6069,-122.60216,47.50173,-122.80458","slug":"shivering-denizens-daily-steps","updated":"2023-12-21","region":"Bremerton","edit_url":"https:\/\/docs.google.com\/spreadsheets\/d\/12PLbLuD88yY0CuMyjCOu56uNOBr-DyRd8630ses5PJQ\/edit#gid=0&range=216:216"},{"name":"Shivering Denizens - Daily Steps","day":2,"time":"06:00","end_time":"07:00","district":"District 25","location":"Zoom","formatted_address":"Bremerton, WA, USA","regions":["Bremerton"],"types":["12x12","O"],"notes":"Zoom ID: 872 329 5052; Passcode: 151","conference_url":"https:\/\/us02web.zoom.us\/j\/87232950952","coordinates":"47.6069,-122.60216,47.50173,-122.80458","slug":"shivering-denizens-daily-steps-2","updated":"2023-12-21","region":"Bremerton","edit_url":"https:\/\/docs.google.com\/spreadsheets\/d\/12PLbLuD88yY0CuMyjCOu56uNOBr-DyRd8630ses5PJQ\/edit#gid=0&range=217:217"},{"name":"Shivering Denizens - Daily Steps","day":3,"time":"06:00","end_time":"07:00","district":"District 25","location":"Zoom","formatted_address":"Bremerton, WA, USA","regions":["Bremerton"],"types":["12x12","O"],"notes":"Zoom ID: 872 329 5052; Passcode: 151","conference_url":"https:\/\/us02web.zoom.us\/j\/87232950952","coordinates":"47.6069,-122.60216,47.50173,-122.80458","slug":"shivering-denizens-daily-steps-3","updated":"2023-12-21","region":"Bremerton","edit_url":"https:\/\/docs.google.com\/spreadsheets\/d\/12PLbLuD88yY0CuMyjCOu56uNOBr-DyRd8630ses5PJQ\/edit#gid=0&range=218:218"},{"name":"Shivering Denizens - Daily Steps","day":4,"time":"06:00","end_time":"07:00","district":"District 25","location":"Zoom","formatted_address":"Bremerton, WA, USA","regions":["Bremerton"],"types":["12x12","O"],"notes":"Zoom ID: 872 329 5052; Passcode: 151","conference_url":"https:\/\/us02web.zoom.us\/j\/87232950952","coordinates":"47.6069,-122.60216,47.50173,-122.80458","slug":"shivering-denizens-daily-steps-4","updated":"2023-12-21","region":"Bremerton","edit_url":"https:\/\/docs.google.com\/spreadsheets\/d\/12PLbLuD88yY0CuMyjCOu56uNOBr-DyRd8630ses5PJQ\/edit#gid=0&range=219:219"},{"name":"Shivering Denizens - Daily Steps","day":5,"time":"06:00","end_time":"07:00","district":"District 25","location":"Zoom","formatted_address":"Bremerton, WA, USA","regions":["Bremerton"],"types":["12x12","O"],"notes":"Zoom ID: 872 329 5052; Passcode: 151","conference_url":"https:\/\/us02web.zoom.us\/j\/87232950952","coordinates":"47.6069,-122.60216,47.50173,-122.80458","slug":"shivering-denizens-daily-steps-5","updated":"2023-12-21","region":"Bremerton","edit_url":"https:\/\/docs.google.com\/spreadsheets\/d\/12PLbLuD88yY0CuMyjCOu56uNOBr-DyRd8630ses5PJQ\/edit#gid=0&range=220:220"},{"name":"Shivering Denizens - Daily Steps","day":6,"time":"06:00","end_time":"07:00","district":"District 25","location":"Zoom","formatted_address":"Bremerton, WA, USA","regions":["Bremerton"],"types":["12x12","O"],"notes":"Zoom ID: 872 329 5052; Passcode: 151","conference_url":"https:\/\/us02web.zoom.us\/j\/87232950952","coordinates":"47.6069,-122.60216,47.50173,-122.80458","slug":"shivering-denizens-daily-steps-6","updated":"2024-05-16","region":"Bremerton","edit_url":"https:\/\/docs.google.com\/spreadsheets\/d\/12PLbLuD88yY0CuMyjCOu56uNOBr-DyRd8630ses5PJQ\/edit#gid=0&range=221:221"},{"name":"Simplicity Meeting","day":0,"time":"10:00","end_time":"11:00","district":"District 25","location":"Zoom","formatted_address":"Seattle, WA, USA","regions":["Seattle"],"types":["DR"],"notes":"zoom ID: 528 344 085; passcode: 11121934","conference_url":"https:\/\/us02web.zoom.us\/j\/528344085","slug":"simplicity-meeting-1","updated":"2024-05-20","region":"Seattle","edit_url":"https:\/\/docs.google.com\/spreadsheets\/d\/12PLbLuD88yY0CuMyjCOu56uNOBr-DyRd8630ses5PJQ\/edit#gid=0&range=222:222"},{"name":"Simplicity Meeting","day":2,"time":"10:00","end_time":"11:00","district":"District 25","location":"Zoom","formatted_address":"Seattle, WA, USA","regions":["Seattle"],"types":["DR"],"notes":"zoom ID: 528 344 085; passcode: 11121934","conference_url":"https:\/\/us02web.zoom.us\/j\/528344085","slug":"simplicity-meeting-2","updated":"2024-05-20","region":"Seattle","edit_url":"https:\/\/docs.google.com\/spreadsheets\/d\/12PLbLuD88yY0CuMyjCOu56uNOBr-DyRd8630ses5PJQ\/edit#gid=0&range=223:223"},{"name":"Simplicity Meeting","day":3,"time":"10:00","end_time":"11:00","district":"District 25","location":"Zoom","formatted_address":"Seattle, WA, USA","regions":["Seattle"],"types":["DR"],"notes":"zoom ID: 528 344 085; passcode: 11121934","conference_url":"https:\/\/us02web.zoom.us\/j\/528344085","slug":"simplicity-meeting-3","updated":"2024-05-20","region":"Seattle","edit_url":"https:\/\/docs.google.com\/spreadsheets\/d\/12PLbLuD88yY0CuMyjCOu56uNOBr-DyRd8630ses5PJQ\/edit#gid=0&range=224:224"},{"name":"Simplicity Meeting","day":4,"time":"10:00","end_time":"11:00","district":"District 25","location":"Zoom","formatted_address":"Seattle, WA, USA","regions":["Seattle"],"types":["DR"],"notes":"zoom ID: 528 344 085; passcode: 11121934","conference_url":"https:\/\/us02web.zoom.us\/j\/528344085","slug":"simplicity-meeting-4","updated":"2024-05-20","region":"Seattle","edit_url":"https:\/\/docs.google.com\/spreadsheets\/d\/12PLbLuD88yY0CuMyjCOu56uNOBr-DyRd8630ses5PJQ\/edit#gid=0&range=225:225"},{"name":"Simplicity Meeting","day":5,"time":"10:00","end_time":"11:00","district":"District 25","location":"Zoom","formatted_address":"Seattle, WA, USA","regions":["Seattle"],"types":["DR"],"notes":"zoom ID: 528 344 085; passcode: 11121934","conference_url":"https:\/\/us02web.zoom.us\/j\/528344085","slug":"simplicity-meeting-5","updated":"2024-05-20","region":"Seattle","edit_url":"https:\/\/docs.google.com\/spreadsheets\/d\/12PLbLuD88yY0CuMyjCOu56uNOBr-DyRd8630ses5PJQ\/edit#gid=0&range=226:226"},{"name":"Sober Start","day":2,"time":"07:00","end_time":"08:00","district":"District 25","location":"Zoom","formatted_address":"Orcas Island, Washington, USA","regions":["Orcas Island"],"types":["C"],"notes":"Zoom ID: 9084782004, PC: call 360-376-4522 for passcode, https:\/\/www.orcasislandaa.org\/meetings\/","conference_url":"https:\/\/us02web.zoom.us\/j\/9084782004#success","coordinates":"48.7147,-122.74178,48.58836,-123.03067","slug":"sober-start","updated":"2024-05-16","region":"Orcas Island","edit_url":"https:\/\/docs.google.com\/spreadsheets\/d\/12PLbLuD88yY0CuMyjCOu56uNOBr-DyRd8630ses5PJQ\/edit#gid=0&range=227:227"},{"name":"Sobriety at Week's End","day":5,"time":"17:30","end_time":"18:30","district":"District 25","location":"Zoom","formatted_address":"Seattle, WA, USA","regions":["Seattle"],"types":["LIT","W"],"notes":"Zoom ID: 4870391255","conference_url":"https:\/\/us02web.zoom.us\/j\/4870391255","slug":"sobriety-at-weeks-end","updated":"2024-08-17","region":"Seattle","edit_url":"https:\/\/docs.google.com\/spreadsheets\/d\/12PLbLuD88yY0CuMyjCOu56uNOBr-DyRd8630ses5PJQ\/edit#gid=0&range=228:228"},{"name":"Southside Nationwide International","day":0,"time":"17:30","end_time":"18:30","district":"District 25","location":"Zoom","formatted_address":"Seattle, WA, USA","regions":["Seattle"],"types":["C"],"notes":"Zoom  ID: 341942513","conference_url":"https:\/\/us02web.zoom.us\/j\/341942513","slug":"southside-nationwide","updated":"2024-05-16","region":"Seattle","edit_url":"https:\/\/docs.google.com\/spreadsheets\/d\/12PLbLuD88yY0CuMyjCOu56uNOBr-DyRd8630ses5PJQ\/edit#gid=0&range=229:229"},{"name":"Southside Nationwide International","day":1,"time":"17:30","end_time":"18:30","district":"District 25","location":"Zoom","formatted_address":"Seattle, WA, USA","regions":["Seattle"],"types":["C"],"notes":"Zoom  ID: 341942513","conference_url":"https:\/\/us02web.zoom.us\/j\/341942513","slug":"southside-nationwide-2","updated":"2024-01-23","region":"Seattle","edit_url":"https:\/\/docs.google.com\/spreadsheets\/d\/12PLbLuD88yY0CuMyjCOu56uNOBr-DyRd8630ses5PJQ\/edit#gid=0&range=230:230"},{"name":"Southside Nationwide International","day":2,"time":"17:30","end_time":"18:30","district":"District 25","location":"Zoom","formatted_address":"Seattle, WA, USA","regions":["Seattle"],"types":["C"],"notes":"Zoom  ID: 341942513","conference_url":"https:\/\/us02web.zoom.us\/j\/341942513","slug":"southside-nationwide-3","updated":"2024-01-23","region":"Seattle","edit_url":"https:\/\/docs.google.com\/spreadsheets\/d\/12PLbLuD88yY0CuMyjCOu56uNOBr-DyRd8630ses5PJQ\/edit#gid=0&range=231:231"},{"name":"Southside Nationwide International","day":3,"time":"17:30","end_time":"18:30","district":"District 25","location":"Zoom","formatted_address":"Seattle, WA, USA","regions":["Seattle"],"types":["C"],"notes":"Zoom  ID: 341942513","conference_url":"https:\/\/us02web.zoom.us\/j\/341942513","slug":"southside-nationwide-4","updated":"2024-01-23","region":"Seattle","edit_url":"https:\/\/docs.google.com\/spreadsheets\/d\/12PLbLuD88yY0CuMyjCOu56uNOBr-DyRd8630ses5PJQ\/edit#gid=0&range=232:232"},{"name":"Southside Nationwide International","day":4,"time":"17:30","end_time":"18:30","district":"District 25","location":"Zoom","formatted_address":"Seattle, WA, USA","regions":["Seattle"],"types":["C"],"notes":"Zoom  ID: 341942513","conference_url":"https:\/\/us02web.zoom.us\/j\/341942513","slug":"southside-nationwide-5","updated":"2024-01-23","region":"Seattle","edit_url":"https:\/\/docs.google.com\/spreadsheets\/d\/12PLbLuD88yY0CuMyjCOu56uNOBr-DyRd8630ses5PJQ\/edit#gid=0&range=233:233"},{"name":"Southside Nationwide International","day":5,"time":"17:30","end_time":"18:30","district":"District 25","location":"Zoom","formatted_address":"Seattle, WA, USA","regions":["Seattle"],"types":["C"],"notes":"Zoom  ID: 341942513","conference_url":"https:\/\/us02web.zoom.us\/j\/341942513","slug":"southside-nationwide-6","updated":"2024-01-23","region":"Seattle","edit_url":"https:\/\/docs.google.com\/spreadsheets\/d\/12PLbLuD88yY0CuMyjCOu56uNOBr-DyRd8630ses5PJQ\/edit#gid=0&range=234:234"},{"name":"Southside Nationwide International","day":6,"time":"17:30","end_time":"18:30","district":"District 25","location":"Zoom","formatted_address":"Seattle, WA, USA","regions":["Seattle"],"types":["C"],"notes":"Zoom  ID: 341942513","conference_url":"https:\/\/us02web.zoom.us\/j\/341942513","coordinates":"47.73528,-122.21982,47.48215,-122.45977","slug":"southside-nationwide-7","updated":"2025-02-15","region":"Seattle","edit_url":"https:\/\/docs.google.com\/spreadsheets\/d\/12PLbLuD88yY0CuMyjCOu56uNOBr-DyRd8630ses5PJQ\/edit#gid=0&range=235:235"},{"name":"Spiritual Awakening Group","day":3,"time":"09:00","end_time":"10:00","district":"District 25","location":"Zoom","formatted_address":"Seattle, WA, USA","regions":["Seattle"],"types":["C"],"notes":"Zoom ID: 73923582283","conference_url":"https:\/\/us02web.zoom.us\/j\/73923582283","slug":"spiritual-awakening-group","updated":"2025-02-15","region":"Seattle","edit_url":"https:\/\/docs.google.com\/spreadsheets\/d\/12PLbLuD88yY0CuMyjCOu56uNOBr-DyRd8630ses5PJQ\/edit#gid=0&range=236:236"},{"name":"Spiritual Awakening Group","day":6,"time":"00:00","end_time":"01:00","district":"District 25","location":"Zoom","formatted_address":"Seattle, WA, USA","regions":["Seattle"],"types":["C"],"notes":"Zoom ID: 73923582283","conference_url":"https:\/\/us02web.zoom.us\/j\/73923582283","slug":"spiritual-awakening-group-1","updated":"2025-02-15","region":"Seattle","edit_url":"https:\/\/docs.google.com\/spreadsheets\/d\/12PLbLuD88yY0CuMyjCOu56uNOBr-DyRd8630ses5PJQ\/edit#gid=0&range=237:237"},{"name":"The 4th Dimension","day":1,"time":"19:00","end_time":"20:00","district":"District 25","location":"Zoom","formatted_address":"Chehalis, WA 98532, USA","regions":["Chehalis"],"types":["D","O"],"notes":"Zoom ID: 810 6816 4867 (no passcode)","conference_url":"https:\/\/us06web.zoom.us\/j\/81068164867","coordinates":"46.69447,-122.9295,46.63377,-122.99761","slug":"the-4th-dimension","updated":"2024-01-21","region":"Chehalis","edit_url":"https:\/\/docs.google.com\/spreadsheets\/d\/12PLbLuD88yY0CuMyjCOu56uNOBr-DyRd8630ses5PJQ\/edit#gid=0&range=238:238"},{"name":"The 4th Dimension","day":3,"time":"19:00","end_time":"20:00","district":"District 25","location":"Zoom","formatted_address":"Chehalis, WA 98532, USA","regions":["Chehalis"],"types":["D","O"],"notes":"Zoom ID: 810 6816 4867 (no passcode)","conference_url":"https:\/\/us06web.zoom.us\/j\/81068164867","coordinates":"46.69447,-122.9295,46.63377,-122.99761","slug":"the-4th-dimension-2","updated":"2023-12-21","region":"Chehalis","edit_url":"https:\/\/docs.google.com\/spreadsheets\/d\/12PLbLuD88yY0CuMyjCOu56uNOBr-DyRd8630ses5PJQ\/edit#gid=0&range=239:239"},{"name":"The 4th Dimension","day":5,"time":"19:00","end_time":"20:00","district":"District 25","location":"Zoom","formatted_address":"Chehalis, WA 98532, USA","regions":["Chehalis"],"types":["D","O"],"notes":"Zoom ID: 810 6816 4867 (no passcode)","conference_url":"https:\/\/us06web.zoom.us\/j\/81068164867","coordinates":"46.69447,-122.9295,46.63377,-122.99761","slug":"the-4th-dimension-3","updated":"2024-01-05","region":"Chehalis","edit_url":"https:\/\/docs.google.com\/spreadsheets\/d\/12PLbLuD88yY0CuMyjCOu56uNOBr-DyRd8630ses5PJQ\/edit#gid=0&range=240:240"},{"name":"The Meeker Group","day":0,"time":"06:00","end_time":"07:00","district":"District 25","location":"Zoom","formatted_address":"Puyallup, WA, USA","regions":["Puyallup"],"types":["O"],"notes":"Zoom ID: 128880885, PC: Meeker207","conference_url":"https:\/\/us02web.zoom.us\/j\/128880885","coordinates":"47.22056,-122.23481,47.14739,-122.33789","slug":"the-meeker-group","updated":"2024-11-15","region":"Puyallup","edit_url":"https:\/\/docs.google.com\/spreadsheets\/d\/12PLbLuD88yY0CuMyjCOu56uNOBr-DyRd8630ses5PJQ\/edit#gid=0&range=241:241"},{"name":"The Meeker Group","day":0,"time":"18:00","end_time":"19:00","district":"District 25","location":"Zoom","formatted_address":"Puyallup, WA, USA","regions":["Puyallup"],"types":["O"],"notes":"Zoom ID: 128880885, PC: Meeker207","conference_url":"https:\/\/us02web.zoom.us\/j\/128880885","coordinates":"47.01754,-124.10316,46.92639,-124.18018","slug":"the-meeker-group-2","updated":"2024-01-20","region":"Puyallup","edit_url":"https:\/\/docs.google.com\/spreadsheets\/d\/12PLbLuD88yY0CuMyjCOu56uNOBr-DyRd8630ses5PJQ\/edit#gid=0&range=242:242"},{"name":"The Meeker Group","day":1,"time":"06:00","end_time":"07:00","district":"District 25","location":"Zoom","formatted_address":"Puyallup, WA, USA","regions":["Puyallup"],"types":["O"],"notes":"Zoom ID: 128880885, PC: Meeker207","conference_url":"https:\/\/us02web.zoom.us\/j\/128880885","coordinates":"47.01754,-124.10316,46.92639,-124.18018","slug":"the-meeker-group-3","updated":"2024-01-20","region":"Puyallup","edit_url":"https:\/\/docs.google.com\/spreadsheets\/d\/12PLbLuD88yY0CuMyjCOu56uNOBr-DyRd8630ses5PJQ\/edit#gid=0&range=243:243"},{"name":"The Meeker Group","day":1,"time":"18:00","end_time":"19:00","district":"District 25","location":"Zoom","formatted_address":"Puyallup, WA, USA","regions":["Puyallup"],"types":["O"],"notes":"Zoom ID: 128880885, PC: Meeker207","conference_url":"https:\/\/us02web.zoom.us\/j\/128880885","coordinates":"47.01754,-124.10316,46.92639,-124.18018","slug":"the-meeker-group-5","updated":"2024-01-20","region":"Puyallup","edit_url":"https:\/\/docs.google.com\/spreadsheets\/d\/12PLbLuD88yY0CuMyjCOu56uNOBr-DyRd8630ses5PJQ\/edit#gid=0&range=244:244"},{"name":"The Meeker Group","day":2,"time":"06:00","end_time":"07:00","district":"District 25","location":"Zoom","formatted_address":"Puyallup, WA, USA","regions":["Puyallup"],"types":["O"],"notes":"Zoom ID: 128880885, PC: Meeker207","conference_url":"https:\/\/us02web.zoom.us\/j\/128880885","coordinates":"47.01754,-124.10316,46.92639,-124.18018","slug":"the-meeker-group-6","updated":"2024-01-20","region":"Puyallup","edit_url":"https:\/\/docs.google.com\/spreadsheets\/d\/12PLbLuD88yY0CuMyjCOu56uNOBr-DyRd8630ses5PJQ\/edit#gid=0&range=245:245"},{"name":"The Meeker Group","day":2,"time":"18:00","end_time":"19:00","district":"District 25","location":"Zoom","formatted_address":"Puyallup, WA, USA","regions":["Puyallup"],"types":["O"],"notes":"Zoom ID: 128880885, PC: Meeker207","conference_url":"https:\/\/us02web.zoom.us\/j\/128880885","coordinates":"47.01754,-124.10316,46.92639,-124.18018","slug":"the-meeker-group-8","updated":"2024-01-20","region":"Puyallup","edit_url":"https:\/\/docs.google.com\/spreadsheets\/d\/12PLbLuD88yY0CuMyjCOu56uNOBr-DyRd8630ses5PJQ\/edit#gid=0&range=246:246"},{"name":"The Meeker Group","day":3,"time":"06:00","end_time":"07:00","district":"District 25","location":"Zoom","formatted_address":"Puyallup, WA, USA","regions":["Puyallup"],"types":["O"],"notes":"Zoom ID: 128880885, PC: Meeker207","conference_url":"https:\/\/us02web.zoom.us\/j\/128880885","coordinates":"47.01754,-124.10316,46.92639,-124.18018","slug":"the-meeker-group-9","updated":"2024-01-20","region":"Puyallup","edit_url":"https:\/\/docs.google.com\/spreadsheets\/d\/12PLbLuD88yY0CuMyjCOu56uNOBr-DyRd8630ses5PJQ\/edit#gid=0&range=247:247"},{"name":"The Meeker Group","day":3,"time":"18:00","end_time":"19:00","district":"District 25","location":"Zoom","formatted_address":"Puyallup, WA, USA","regions":["Puyallup"],"types":["O"],"notes":"Zoom ID: 128880885, PC: Meeker207","conference_url":"https:\/\/us02web.zoom.us\/j\/128880885","coordinates":"47.01754,-124.10316,46.92639,-124.18018","slug":"the-meeker-group-11","updated":"2024-01-20","region":"Puyallup","edit_url":"https:\/\/docs.google.com\/spreadsheets\/d\/12PLbLuD88yY0CuMyjCOu56uNOBr-DyRd8630ses5PJQ\/edit#gid=0&range=248:248"},{"name":"The Meeker Group","day":4,"time":"06:00","end_time":"07:00","district":"District 25","location":"Zoom","formatted_address":"Puyallup, WA, USA","regions":["Puyallup"],"types":["O"],"notes":"Zoom ID: 128880885, PC: Meeker207","conference_url":"https:\/\/us02web.zoom.us\/j\/128880885","coordinates":"47.01754,-124.10316,46.92639,-124.18018","slug":"the-meeker-group-12","updated":"2024-01-20","region":"Puyallup","edit_url":"https:\/\/docs.google.com\/spreadsheets\/d\/12PLbLuD88yY0CuMyjCOu56uNOBr-DyRd8630ses5PJQ\/edit#gid=0&range=249:249"},{"name":"The Meeker Group","day":4,"time":"18:00","end_time":"19:00","district":"District 25","location":"Zoom","formatted_address":"Puyallup, WA, USA","regions":["Puyallup"],"types":["O"],"notes":"Zoom ID: 128880885, PC: Meeker207","conference_url":"https:\/\/us02web.zoom.us\/j\/128880885","coordinates":"47.01754,-124.10316,46.92639,-124.18018","slug":"the-meeker-group-14","updated":"2024-01-20","region":"Puyallup","edit_url":"https:\/\/docs.google.com\/spreadsheets\/d\/12PLbLuD88yY0CuMyjCOu56uNOBr-DyRd8630ses5PJQ\/edit#gid=0&range=250:250"},{"name":"The Meeker Group","day":5,"time":"06:00","end_time":"07:00","district":"District 25","location":"Zoom","formatted_address":"Puyallup, WA, USA","regions":["Puyallup"],"types":["O"],"notes":"Zoom ID: 128880885, PC: Meeker207","conference_url":"https:\/\/us02web.zoom.us\/j\/128880885","coordinates":"47.01754,-124.10316,46.92639,-124.18018","slug":"the-meeker-group-15","updated":"2024-01-20","region":"Puyallup","edit_url":"https:\/\/docs.google.com\/spreadsheets\/d\/12PLbLuD88yY0CuMyjCOu56uNOBr-DyRd8630ses5PJQ\/edit#gid=0&range=251:251"},{"name":"The Meeker Group","day":5,"time":"18:00","end_time":"19:00","district":"District 25","location":"Zoom","formatted_address":"Puyallup, WA, USA","regions":["Puyallup"],"types":["O"],"notes":"Zoom ID: 128880885, PC: Meeker207","conference_url":"https:\/\/us02web.zoom.us\/j\/128880885","coordinates":"47.01754,-124.10316,46.92639,-124.18018","slug":"the-meeker-group-17","updated":"2024-01-20","region":"Puyallup","edit_url":"https:\/\/docs.google.com\/spreadsheets\/d\/12PLbLuD88yY0CuMyjCOu56uNOBr-DyRd8630ses5PJQ\/edit#gid=0&range=252:252"},{"name":"The Meeker Group","day":6,"time":"06:00","end_time":"07:00","district":"District 25","location":"Zoom","formatted_address":"Puyallup, WA, USA","regions":["Puyallup"],"types":["O"],"notes":"Zoom ID: 128880885, PC: Meeker207","conference_url":"https:\/\/us02web.zoom.us\/j\/128880885","coordinates":"47.01754,-124.10316,46.92639,-124.18018","slug":"the-meeker-group-18","updated":"2024-01-20","region":"Puyallup","edit_url":"https:\/\/docs.google.com\/spreadsheets\/d\/12PLbLuD88yY0CuMyjCOu56uNOBr-DyRd8630ses5PJQ\/edit#gid=0&range=253:253"},{"name":"The Meeker Group","day":6,"time":"08:00","end_time":"09:00","district":"District 25","location":"Zoom","formatted_address":"Puyallup, WA, USA","regions":["Puyallup"],"types":["LIT","W"],"notes":"Zoom ID: 128880885, PC: Meeker207","conference_url":"https:\/\/us02web.zoom.us\/j\/128880885","coordinates":"47.01754,-124.10316,46.92639,-124.18018","slug":"the-meeker-group-19","updated":"2024-05-20","region":"Puyallup","edit_url":"https:\/\/docs.google.com\/spreadsheets\/d\/12PLbLuD88yY0CuMyjCOu56uNOBr-DyRd8630ses5PJQ\/edit#gid=0&range=254:254"},{"name":"The Meeker Group","day":6,"time":"18:00","end_time":"19:00","district":"District 25","location":"Zoom","formatted_address":"Puyallup, WA, USA","regions":["Puyallup"],"types":["O"],"notes":"Zoom ID: 128880885, PC: Meeker207","conference_url":"https:\/\/us02web.zoom.us\/j\/128880885","coordinates":"47.01754,-124.10316,46.92639,-124.18018","slug":"the-meeker-group-20","updated":"2024-01-20","region":"Puyallup","edit_url":"https:\/\/docs.google.com\/spreadsheets\/d\/12PLbLuD88yY0CuMyjCOu56uNOBr-DyRd8630ses5PJQ\/edit#gid=0&range=255:255"},{"name":"There Is A Solution","day":0,"time":"20:00","end_time":"21:15","district":"District 25","location":"Zoom","formatted_address":"Seattle, WA, USA","regions":["Seattle"],"types":["O"],"notes":"Zoom ID: 251046515, Passcode: 031509","conference_url":"https:\/\/us02web.zoom.us\/j\/251046515?pwd=aEJEWWxkY21sMHd6QmNtMFNOdWlCdz09","coordinates":"47.73417,-122.22443,47.49191,-122.4597","slug":"there-is-a-solution-1","updated":"2024-01-16","region":"Seattle","edit_url":"https:\/\/docs.google.com\/spreadsheets\/d\/12PLbLuD88yY0CuMyjCOu56uNOBr-DyRd8630ses5PJQ\/edit#gid=0&range=256:256"},{"name":"There Is A Solution","day":1,"time":"20:00","end_time":"21:15","district":"District 25","location":"Zoom","formatted_address":"Seattle, WA, USA","regions":["Seattle"],"types":["O"],"notes":"Zoom ID: 251046515, Passcode: 031509","conference_url":"https:\/\/us02web.zoom.us\/j\/251046515?pwd=aEJEWWxkY21sMHd6QmNtMFNOdWlCdz09","coordinates":"47.73417,-122.22443,47.49191,-122.4597","slug":"there-is-a-solution-2","updated":"2025-11-23","region":"Seattle","edit_url":"https:\/\/docs.google.com\/spreadsheets\/d\/12PLbLuD88yY0CuMyjCOu56uNOBr-DyRd8630ses5PJQ\/edit#gid=0&range=257:257"},{"name":"There Is A Solution","day":2,"time":"20:00","end_time":"21:15","district":"District 25","location":"Zoom","formatted_address":"Seattle, WA, USA","regions":["Seattle"],"types":["O"],"notes":"Zoom ID: 251046515, Passcode: 031509","conference_url":"https:\/\/us02web.zoom.us\/j\/251046515?pwd=aEJEWWxkY21sMHd6QmNtMFNOdWlCdz09","coordinates":"47.73417,-122.22443,47.49191,-122.4597","slug":"there-is-a-solution-3","updated":"2025-11-23","region":"Seattle","edit_url":"https:\/\/docs.google.com\/spreadsheets\/d\/12PLbLuD88yY0CuMyjCOu56uNOBr-DyRd8630ses5PJQ\/edit#gid=0&range=258:258"},{"name":"There Is A Solution","day":3,"time":"20:00","end_time":"21:15","district":"District 25","location":"Zoom","formatted_address":"Seattle, WA, USA","regions":["Seattle"],"types":["O"],"notes":"Zoom ID: 251046515, Passcode: 031509","conference_url":"https:\/\/us02web.zoom.us\/j\/251046515?pwd=aEJEWWxkY21sMHd6QmNtMFNOdWlCdz09","coordinates":"47.73417,-122.22443,47.49191,-122.4597","slug":"there-is-a-solution-4","updated":"2024-01-11","region":"Seattle","edit_url":"https:\/\/docs.google.com\/spreadsheets\/d\/12PLbLuD88yY0CuMyjCOu56uNOBr-DyRd8630ses5PJQ\/edit#gid=0&range=259:259"},{"name":"There Is A Solution","day":4,"time":"20:00","end_time":"21:15","district":"District 25","location":"Zoom","formatted_address":"Seattle, WA, USA","regions":["Seattle"],"types":["O"],"notes":"Zoom ID: 251046515, Passcode: 031509","conference_url":"https:\/\/us02web.zoom.us\/j\/251046515?pwd=aEJEWWxkY21sMHd6QmNtMFNOdWlCdz09","coordinates":"47.73417,-122.22443,47.49191,-122.4597","slug":"there-is-a-solution-5","updated":"2024-01-11","region":"Seattle","edit_url":"https:\/\/docs.google.com\/spreadsheets\/d\/12PLbLuD88yY0CuMyjCOu56uNOBr-DyRd8630ses5PJQ\/edit#gid=0&range=260:260"},{"name":"There Is A Solution","day":5,"time":"20:00","end_time":"21:15","district":"District 25","location":"Zoom","formatted_address":"Seattle, WA, USA","regions":["Seattle"],"types":["O"],"notes":"Zoom ID: 251046515, Passcode: 031509","conference_url":"https:\/\/us02web.zoom.us\/j\/251046515?pwd=aEJEWWxkY21sMHd6QmNtMFNOdWlCdz09","coordinates":"47.73417,-122.22443,47.49191,-122.4597","slug":"there-is-a-solution-6","updated":"2024-01-11","region":"Seattle","edit_url":"https:\/\/docs.google.com\/spreadsheets\/d\/12PLbLuD88yY0CuMyjCOu56uNOBr-DyRd8630ses5PJQ\/edit#gid=0&range=261:261"},{"name":"There Is A Solution","day":6,"time":"20:00","end_time":"21:15","district":"District 25","location":"Zoom","formatted_address":"Seattle, WA, USA","regions":["Seattle"],"types":["O"],"notes":"Zoom ID: 251046515, Passcode: 031509","conference_url":"https:\/\/us02web.zoom.us\/j\/251046515?pwd=aEJEWWxkY21sMHd6QmNtMFNOdWlCdz09","coordinates":"47.73417,-122.22443,47.49191,-122.4597","slug":"there-is-a-solution-7","updated":"2024-01-11","region":"Seattle","edit_url":"https:\/\/docs.google.com\/spreadsheets\/d\/12PLbLuD88yY0CuMyjCOu56uNOBr-DyRd8630ses5PJQ\/edit#gid=0&range=262:262"},{"name":"There is A Solution Online","day":1,"time":"19:30","end_time":"20:30","district":"District 25","location":"Zoom","formatted_address":"Woodinville, WA, USA","regions":["Woodenville"],"types":["C"],"notes":"Zoom ID: 85205215508, Passcode: 757250","conference_url":"https:\/\/us02web.zoom.us\/j\/85205215508?pwd=R3p1QVM2QzhXNnVwUy83TUdEV3ZUdz09","coordinates":"47.77632,-122.11078,47.72487,-122.17579","slug":"there-is-a-solution-online","updated":"2024-01-05","region":"Woodenville","edit_url":"https:\/\/docs.google.com\/spreadsheets\/d\/12PLbLuD88yY0CuMyjCOu56uNOBr-DyRd8630ses5PJQ\/edit#gid=0&range=263:263"},{"name":"Transgender Nonbinary Intersex Folks & Friends","day":0,"time":"10:00","end_time":"00:00","district":"District 25","location":"Zoom","formatted_address":"Seattle, WA, USA","regions":["Seattle"],"types":["C","LGBTQ"],"notes":"Zoom ID: 81050440792, Please also note that individuals who would like to attend should email transnonbinaryintersexaa@gmail.com","conference_url":"https:\/\/us02web.zoom.us\/j\/81050440792","coordinates":"47.73417,-122.22443,47.49191,-122.4597","slug":"transgender-nonbinary-intersex-folks-friends","updated":"2024-01-05","region":"Seattle","edit_url":"https:\/\/docs.google.com\/spreadsheets\/d\/12PLbLuD88yY0CuMyjCOu56uNOBr-DyRd8630ses5PJQ\/edit#gid=0&range=264:264"},{"name":"Wake Up Group","day":0,"time":"06:00","end_time":"07:00","district":"District 25","location":"Zoom","formatted_address":"Bellevue, WA, USA","regions":["Bellevue"],"types":["O"],"notes":"Zoom ID: 82375395998, Passcode: 925387","conference_url":"https:\/\/us02web.zoom.us\/j\/82375395998?pwd=MmRjcWpTbzdaZDZuSkZ4Yy9xZ0o1dz10","coordinates":"47.6607,-122.07933,47.53461,-122.22293","slug":"wake-up-group-1","updated":"2024-01-11","region":"Bellevue","edit_url":"https:\/\/docs.google.com\/spreadsheets\/d\/12PLbLuD88yY0CuMyjCOu56uNOBr-DyRd8630ses5PJQ\/edit#gid=0&range=265:265"},{"name":"Wake Up Group","day":1,"time":"06:00","end_time":"07:00","district":"District 25","location":"Zoom","formatted_address":"Bellevue, WA, USA","regions":["Bellevue"],"types":["O"],"notes":"Zoom ID: 82375395998, Passcode: 925387","conference_url":"https:\/\/us02web.zoom.us\/j\/82375395998?pwd=MmRjcWpTbzdaZDZuSkZ4Yy9xZ0o1dz10","coordinates":"47.6607,-122.07933,47.53461,-122.22293","slug":"wake-up-group-2","updated":"2024-01-11","region":"Bellevue","edit_url":"https:\/\/docs.google.com\/spreadsheets\/d\/12PLbLuD88yY0CuMyjCOu56uNOBr-DyRd8630ses5PJQ\/edit#gid=0&range=266:266"},{"name":"Wake Up Group","day":2,"time":"06:00","end_time":"07:00","district":"District 25","location":"Zoom","formatted_address":"Bellevue, WA, USA","regions":["Bellevue"],"types":["O"],"notes":"Zoom ID: 82375395998, Passcode: 925387","conference_url":"https:\/\/us02web.zoom.us\/j\/82375395998?pwd=MmRjcWpTbzdaZDZuSkZ4Yy9xZ0o1dz10","coordinates":"47.6607,-122.07933,47.53461,-122.22293","slug":"wake-up-group-3","updated":"2024-01-11","region":"Bellevue","edit_url":"https:\/\/docs.google.com\/spreadsheets\/d\/12PLbLuD88yY0CuMyjCOu56uNOBr-DyRd8630ses5PJQ\/edit#gid=0&range=267:267"},{"name":"Wake Up Group","day":3,"time":"06:00","end_time":"07:00","district":"District 25","location":"Zoom","formatted_address":"Bellevue, WA, USA","regions":["Bellevue"],"types":["O"],"notes":"Zoom ID: 82375395998, Passcode: 925387","conference_url":"https:\/\/us02web.zoom.us\/j\/82375395998?pwd=MmRjcWpTbzdaZDZuSkZ4Yy9xZ0o1dz10","coordinates":"47.6607,-122.07933,47.53461,-122.22293","slug":"wake-up-group-4","updated":"2024-01-11","region":"Bellevue","edit_url":"https:\/\/docs.google.com\/spreadsheets\/d\/12PLbLuD88yY0CuMyjCOu56uNOBr-DyRd8630ses5PJQ\/edit#gid=0&range=268:268"},{"name":"Wake Up Group","day":4,"time":"06:00","end_time":"07:00","district":"District 25","location":"Zoom","formatted_address":"Bellevue, WA, USA","regions":["Bellevue"],"types":["O"],"notes":"Zoom ID: 82375395998, Passcode: 925387","conference_url":"https:\/\/us02web.zoom.us\/j\/82375395998?pwd=MmRjcWpTbzdaZDZuSkZ4Yy9xZ0o1dz10","coordinates":"47.6607,-122.07933,47.53461,-122.22293","slug":"wake-up-group-5","updated":"2024-01-11","region":"Bellevue","edit_url":"https:\/\/docs.google.com\/spreadsheets\/d\/12PLbLuD88yY0CuMyjCOu56uNOBr-DyRd8630ses5PJQ\/edit#gid=0&range=269:269"},{"name":"Wake Up Group","day":5,"time":"06:00","end_time":"07:00","district":"District 25","location":"Zoom","formatted_address":"Bellevue, WA, USA","regions":["Bellevue"],"types":["O"],"notes":"Zoom ID: 82375395998, Passcode: 925387","conference_url":"https:\/\/us02web.zoom.us\/j\/82375395998?pwd=MmRjcWpTbzdaZDZuSkZ4Yy9xZ0o1dz10","coordinates":"47.6607,-122.07933,47.53461,-122.22293","slug":"wake-up-group-6","updated":"2024-01-11","region":"Bellevue","edit_url":"https:\/\/docs.google.com\/spreadsheets\/d\/12PLbLuD88yY0CuMyjCOu56uNOBr-DyRd8630ses5PJQ\/edit#gid=0&range=270:270"},{"name":"Wake Up Group","day":6,"time":"06:00","end_time":"07:00","district":"District 25","location":"Zoom","formatted_address":"Bellevue, WA, USA","regions":["Bellevue"],"types":["O"],"notes":"Zoom ID: 82375395998, Passcode: 925387","conference_url":"https:\/\/us02web.zoom.us\/j\/82375395998?pwd=MmRjcWpTbzdaZDZuSkZ4Yy9xZ0o1dz10","coordinates":"47.6607,-122.07933,47.53461,-122.22293","slug":"wake-up-group-7","updated":"2024-01-11","region":"Bellevue","edit_url":"https:\/\/docs.google.com\/spreadsheets\/d\/12PLbLuD88yY0CuMyjCOu56uNOBr-DyRd8630ses5PJQ\/edit#gid=0&range=271:271"},{"name":"We Know Only A Little","day":1,"time":"08:00","end_time":"09:00","district":"District 25","location":"Zoom","formatted_address":"Seattle, WA, USA","regions":["Seattle"],"types":["DR"],"notes":"Zoom ID: 3948153021 Passcode:howitworks","conference_url":"https:\/\/us02web.zoom.us\/j\/3948153021?pwd=howitworks","slug":"we-know-only-a-little-1","updated":"2026-02-10","region":"Seattle","edit_url":"https:\/\/docs.google.com\/spreadsheets\/d\/12PLbLuD88yY0CuMyjCOu56uNOBr-DyRd8630ses5PJQ\/edit#gid=0&range=272:272"},{"name":"We Know Only A Little","day":1,"time":"17:00","end_time":"18:00","district":"District 26","location":"Zoom","formatted_address":"Seattle, WA, USA","regions":["Seattle"],"types":["GR"],"notes":"Zoom ID: 3948153021 Passcode:howitworks","conference_url":"https:\/\/us02web.zoom.us\/j\/3948153021?pwd=howitworks","slug":"we-know-only-a-little-1a","updated":"2026-02-10","region":"Seattle","edit_url":"https:\/\/docs.google.com\/spreadsheets\/d\/12PLbLuD88yY0CuMyjCOu56uNOBr-DyRd8630ses5PJQ\/edit#gid=0&range=273:273"},{"name":"We Know Only A Little","day":2,"time":"08:00","end_time":"09:00","district":"District 25","location":"Zoom","formatted_address":"Seattle, WA, USA","regions":["Seattle"],"types":["DR"],"notes":"Zoom ID: 3948153021 Passcode:howitworks","conference_url":"https:\/\/us02web.zoom.us\/j\/3948153021?pwd=howitworks","slug":"we-know-only-a-little-2","updated":"2026-02-10","region":"Seattle","edit_url":"https:\/\/docs.google.com\/spreadsheets\/d\/12PLbLuD88yY0CuMyjCOu56uNOBr-DyRd8630ses5PJQ\/edit#gid=0&range=274:274"},{"name":"We Know Only A Little","day":2,"time":"18:00","end_time":"19:00","district":"District 25","location":"Zoom","formatted_address":"Seattle, WA, USA","regions":["Seattle"],"types":["12x12"],"notes":"Zoom ID: 3948153021 Passcode:howitworks","conference_url":"https:\/\/us02web.zoom.us\/j\/3948153021?pwd=howitworks","slug":"we-know-only-a-little-2a","updated":"2026-02-10","region":"Seattle","edit_url":"https:\/\/docs.google.com\/spreadsheets\/d\/12PLbLuD88yY0CuMyjCOu56uNOBr-DyRd8630ses5PJQ\/edit#gid=0&range=275:275"},{"name":"We Know Only A Little","day":3,"time":"08:00","end_time":"09:00","district":"District 25","location":"Zoom","formatted_address":"Seattle, WA, USA","regions":["Seattle"],"types":["DR"],"notes":"Zoom ID: 3948153021 Passcode:howitworks","conference_url":"https:\/\/us02web.zoom.us\/j\/3948153021?pwd=howitworks","slug":"we-know-only-a-little-3","updated":"2026-02-10","region":"Seattle","edit_url":"https:\/\/docs.google.com\/spreadsheets\/d\/12PLbLuD88yY0CuMyjCOu56uNOBr-DyRd8630ses5PJQ\/edit#gid=0&range=276:276"},{"name":"We Know Only A Little","day":3,"time":"17:00","end_time":"18:00","district":"District 25","location":"Zoom","formatted_address":"Seattle, WA, USA","regions":["Seattle"],"types":["C"],"notes":"Zoom ID: 3948153021 Passcode:howitworks","conference_url":"https:\/\/us02web.zoom.us\/j\/3948153021?pwd=howitworks","slug":"we-know-only-a-little-3a","updated":"2026-02-10","region":"Seattle","edit_url":"https:\/\/docs.google.com\/spreadsheets\/d\/12PLbLuD88yY0CuMyjCOu56uNOBr-DyRd8630ses5PJQ\/edit#gid=0&range=277:277"},{"name":"We Know Only A Little","day":4,"time":"08:00","end_time":"09:00","district":"District 25","location":"Zoom","formatted_address":"Seattle, WA, USA","regions":["Seattle"],"types":["DR"],"notes":"Zoom ID: 3948153021 Passcode:howitworks","conference_url":"https:\/\/us02web.zoom.us\/j\/3948153021?pwd=howitworks","slug":"we-know-only-a-little-4","updated":"2026-02-10","region":"Seattle","edit_url":"https:\/\/docs.google.com\/spreadsheets\/d\/12PLbLuD88yY0CuMyjCOu56uNOBr-DyRd8630ses5PJQ\/edit#gid=0&range=278:278"},{"name":"We Know Only A Little","day":4,"time":"18:00","end_time":"19:00","district":"District 25","location":"Zoom","formatted_address":"Seattle, WA, USA","regions":["Seattle"],"types":["B"],"notes":"Zoom ID: 3948153021 Passcode:howitworks","conference_url":"https:\/\/us02web.zoom.us\/j\/3948153021?pwd=howitworks","slug":"we-know-only-a-little-4a","updated":"2026-02-10","region":"Seattle","edit_url":"https:\/\/docs.google.com\/spreadsheets\/d\/12PLbLuD88yY0CuMyjCOu56uNOBr-DyRd8630ses5PJQ\/edit#gid=0&range=279:279"},{"name":"We Know Only A Little","day":5,"time":"08:00","end_time":"09:00","district":"District 25","location":"Zoom","formatted_address":"Seattle, WA, USA","regions":["Seattle"],"types":["DR"],"notes":"Zoom ID: 3948153021 Passcode:howitworks","conference_url":"https:\/\/us02web.zoom.us\/j\/3948153021?pwd=howitworks","slug":"we-know-only-a-little-5","updated":"2026-02-10","region":"Seattle","edit_url":"https:\/\/docs.google.com\/spreadsheets\/d\/12PLbLuD88yY0CuMyjCOu56uNOBr-DyRd8630ses5PJQ\/edit#gid=0&range=280:280"},{"name":"We Know Only A Little","day":5,"time":"17:00","end_time":"18:00","district":"District 25","location":"Zoom","formatted_address":"Seattle, WA, USA","regions":["Seattle"],"types":["C","D"],"notes":"Zoom ID: 3948153021 Passcode:howitworks","conference_url":"https:\/\/us02web.zoom.us\/j\/3948153021?pwd=howitworks","slug":"we-know-only-a-little-5a","updated":"2026-02-10","region":"Seattle","edit_url":"https:\/\/docs.google.com\/spreadsheets\/d\/12PLbLuD88yY0CuMyjCOu56uNOBr-DyRd8630ses5PJQ\/edit#gid=0&range=281:281"},{"name":"We Know Only A Little","day":6,"time":"18:00","end_time":"19:00","district":"District 25","location":"Zoom","formatted_address":"Seattle, WA, USA","regions":["Seattle"],"types":["C","SP"],"notes":"Zoom ID: 3948153021 Passcode:howitworks","conference_url":"https:\/\/us02web.zoom.us\/j\/3948153021?pwd=howitworks","slug":"we-know-only-a-little-6","updated":"2026-02-10","region":"Seattle","edit_url":"https:\/\/docs.google.com\/spreadsheets\/d\/12PLbLuD88yY0CuMyjCOu56uNOBr-DyRd8630ses5PJQ\/edit#gid=0&range=282:282"},{"name":"We Love Sky Valley","day":0,"time":"08:00","end_time":"09:00","district":"District 25","location":"Zoom","formatted_address":"Snohomish, WA, USA","regions":["Snohomish"],"types":["EN","O"],"notes":"Meeting ID: 644 130 242; Passcode: 046460","conference_url":"https:\/\/us02web.zoom.us\/j\/644130242","coordinates":"47.94907,-122.06629,47.9056,-122.12066","slug":"wlsv-7","updated":"2023-12-21","region":"Snohomish","edit_url":"https:\/\/docs.google.com\/spreadsheets\/d\/12PLbLuD88yY0CuMyjCOu56uNOBr-DyRd8630ses5PJQ\/edit#gid=0&range=283:283"},{"name":"We Love Sky Valley","day":0,"time":"17:30","end_time":"18:30","district":"District 25","location":"Zoom","formatted_address":"Snohomish, WA, USA","regions":["Snohomish"],"types":["EN","O"],"notes":"Meeting ID: 644 130 242; Passcode: 046460","conference_url":"https:\/\/us02web.zoom.us\/j\/644130242","coordinates":"47.94907,-122.06629,47.9056,-122.12066","slug":"wlsv-14","updated":"2023-12-21","region":"Snohomish","edit_url":"https:\/\/docs.google.com\/spreadsheets\/d\/12PLbLuD88yY0CuMyjCOu56uNOBr-DyRd8630ses5PJQ\/edit#gid=0&range=284:284"},{"name":"We Love Sky Valley","day":1,"time":"07:00","end_time":"08:00","district":"District 25","location":"Zoom","formatted_address":"Snohomish, WA, USA","regions":["Snohomish"],"types":["EN","O"],"notes":"Meeting ID: 644 130 242; Passcode: 046460","conference_url":"https:\/\/us02web.zoom.us\/j\/644130242","coordinates":"47.94907,-122.06629,47.9056,-122.12066","slug":"wlsv-1","updated":"2023-12-21","region":"Snohomish","edit_url":"https:\/\/docs.google.com\/spreadsheets\/d\/12PLbLuD88yY0CuMyjCOu56uNOBr-DyRd8630ses5PJQ\/edit#gid=0&range=285:285"},{"name":"We Love Sky Valley","day":1,"time":"17:30","end_time":"18:30","district":"District 25","location":"Zoom","formatted_address":"Snohomish, WA, USA","regions":["Snohomish"],"types":["EN","O"],"notes":"Meeting ID: 644 130 242; Passcode: 046460","conference_url":"https:\/\/us02web.zoom.us\/j\/644130242","coordinates":"47.94907,-122.06629,47.9056,-122.12066","slug":"wlsv-8","updated":"2023-12-21","region":"Snohomish","edit_url":"https:\/\/docs.google.com\/spreadsheets\/d\/12PLbLuD88yY0CuMyjCOu56uNOBr-DyRd8630ses5PJQ\/edit#gid=0&range=286:286"},{"name":"We Love Sky Valley","day":2,"time":"07:00","end_time":"08:00","district":"District 25","location":"Zoom","formatted_address":"Snohomish, WA, USA","regions":["Snohomish"],"types":["EN","O"],"notes":"Meeting ID: 644 130 242; Passcode: 046460","conference_url":"https:\/\/us02web.zoom.us\/j\/644130242","coordinates":"47.94907,-122.06629,47.9056,-122.12066","slug":"wlsv-2","updated":"2023-12-21","region":"Snohomish","edit_url":"https:\/\/docs.google.com\/spreadsheets\/d\/12PLbLuD88yY0CuMyjCOu56uNOBr-DyRd8630ses5PJQ\/edit#gid=0&range=287:287"},{"name":"We Love Sky Valley","day":2,"time":"17:30","end_time":"18:30","district":"District 25","location":"Zoom","formatted_address":"Snohomish, WA, USA","regions":["Snohomish"],"types":["EN","O"],"notes":"Meeting ID: 644 130 242; Passcode: 046460","conference_url":"https:\/\/us02web.zoom.us\/j\/644130242","coordinates":"47.94907,-122.06629,47.9056,-122.12066","slug":"wlsv-9","updated":"2023-12-21","region":"Snohomish","edit_url":"https:\/\/docs.google.com\/spreadsheets\/d\/12PLbLuD88yY0CuMyjCOu56uNOBr-DyRd8630ses5PJQ\/edit#gid=0&range=288:288"},{"name":"We Love Sky Valley","day":3,"time":"07:00","end_time":"08:00","district":"District 25","location":"Zoom","formatted_address":"Snohomish, WA, USA","regions":["Snohomish"],"types":["EN","O"],"notes":"Meeting ID: 644 130 242; Passcode: 046460","conference_url":"https:\/\/us02web.zoom.us\/j\/644130242","coordinates":"47.94907,-122.06629,47.9056,-122.12066","slug":"wlsv-3","updated":"2023-12-21","region":"Snohomish","edit_url":"https:\/\/docs.google.com\/spreadsheets\/d\/12PLbLuD88yY0CuMyjCOu56uNOBr-DyRd8630ses5PJQ\/edit#gid=0&range=289:289"},{"name":"We Love Sky Valley","day":3,"time":"17:30","end_time":"18:30","district":"District 25","location":"Zoom","formatted_address":"Snohomish, WA, USA","regions":["Snohomish"],"types":["EN","O"],"notes":"Meeting ID: 644 130 242; Passcode: 046460","conference_url":"https:\/\/us02web.zoom.us\/j\/644130242","coordinates":"47.94907,-122.06629,47.9056,-122.12066","slug":"wlsv-10","updated":"2023-12-21","region":"Snohomish","edit_url":"https:\/\/docs.google.com\/spreadsheets\/d\/12PLbLuD88yY0CuMyjCOu56uNOBr-DyRd8630ses5PJQ\/edit#gid=0&range=290:290"},{"name":"We Love Sky Valley","day":4,"time":"07:00","end_time":"08:00","district":"District 25","location":"Zoom","formatted_address":"Snohomish, WA, USA","regions":["Snohomish"],"types":["EN","O"],"notes":"Meeting ID: 644 130 242; Passcode: 046460","conference_url":"https:\/\/us02web.zoom.us\/j\/644130242","coordinates":"47.94907,-122.06629,47.9056,-122.12066","slug":"wlsv-4","updated":"2023-12-21","region":"Snohomish","edit_url":"https:\/\/docs.google.com\/spreadsheets\/d\/12PLbLuD88yY0CuMyjCOu56uNOBr-DyRd8630ses5PJQ\/edit#gid=0&range=291:291"},{"name":"We Love Sky Valley","day":4,"time":"17:30","end_time":"18:30","district":"District 25","location":"Zoom","formatted_address":"Snohomish, WA, USA","regions":["Snohomish"],"types":["EN","O"],"notes":"Meeting ID: 644 130 242; Passcode: 046460","conference_url":"https:\/\/us02web.zoom.us\/j\/644130242","coordinates":"47.94907,-122.06629,47.9056,-122.12066","slug":"wlsv-11","updated":"2023-12-21","region":"Snohomish","edit_url":"https:\/\/docs.google.com\/spreadsheets\/d\/12PLbLuD88yY0CuMyjCOu56uNOBr-DyRd8630ses5PJQ\/edit#gid=0&range=292:292"},{"name":"We Love Sky Valley","day":5,"time":"07:00","end_time":"08:00","district":"District 25","location":"Zoom","formatted_address":"Snohomish, WA, USA","regions":["Snohomish"],"types":["EN","O"],"notes":"Meeting ID: 644 130 242; Passcode: 046460","conference_url":"https:\/\/us02web.zoom.us\/j\/644130242","coordinates":"47.94907,-122.06629,47.9056,-122.12066","slug":"wlsv-5","updated":"2023-12-21","region":"Snohomish","edit_url":"https:\/\/docs.google.com\/spreadsheets\/d\/12PLbLuD88yY0CuMyjCOu56uNOBr-DyRd8630ses5PJQ\/edit#gid=0&range=293:293"},{"name":"We Love Sky Valley","day":5,"time":"17:30","end_time":"18:30","district":"District 25","location":"Zoom","formatted_address":"Snohomish, WA, USA","regions":["Snohomish"],"types":["EN","O"],"notes":"Meeting ID: 644 130 242; Passcode: 046460","conference_url":"https:\/\/us02web.zoom.us\/j\/644130242","coordinates":"47.94907,-122.06629,47.9056,-122.12066","slug":"wlsv-12","updated":"2023-12-21","region":"Snohomish","edit_url":"https:\/\/docs.google.com\/spreadsheets\/d\/12PLbLuD88yY0CuMyjCOu56uNOBr-DyRd8630ses5PJQ\/edit#gid=0&range=294:294"},{"name":"We Love Sky Valley","day":6,"time":"07:00","end_time":"08:00","district":"District 25","location":"Zoom","formatted_address":"Snohomish, WA, USA","regions":["Snohomish"],"types":["EN","O"],"notes":"Meeting ID: 644 130 242; Passcode: 046460","conference_url":"https:\/\/us02web.zoom.us\/j\/644130242","coordinates":"47.94907,-122.06629,47.9056,-122.12066","slug":"wlsv-6","updated":"2023-12-21","region":"Snohomish","edit_url":"https:\/\/docs.google.com\/spreadsheets\/d\/12PLbLuD88yY0CuMyjCOu56uNOBr-DyRd8630ses5PJQ\/edit#gid=0&range=295:295"},{"name":"We Love Sky Valley","day":6,"time":"17:30","end_time":"18:30","district":"District 25","location":"Zoom","formatted_address":"Snohomish, WA, USA","regions":["Snohomish"],"types":["EN","O"],"notes":"Meeting ID: 644 130 242; Passcode: 046460","conference_url":"https:\/\/us02web.zoom.us\/j\/644130242","coordinates":"47.94907,-122.06629,47.9056,-122.12066","slug":"wlsv-13","updated":"2023-12-21","region":"Snohomish","edit_url":"https:\/\/docs.google.com\/spreadsheets\/d\/12PLbLuD88yY0CuMyjCOu56uNOBr-DyRd8630ses5PJQ\/edit#gid=0&range=296:296"},{"name":"Women's Daily Supplement","day":0,"time":"09:00","end_time":"10:00","district":"District 25","location":"Zoom","formatted_address":"Vancouver, WA, USA","regions":["Vancouver"],"types":["O","W"],"notes":"Zoom ID: 89937960058","conference_url":"https:\/\/zoom.us\/j\/89937960058","coordinates":"45.69769,-122.46457,45.57858,-122.77335","slug":"womens-daily-supplement-1","updated":"2024-01-11","region":"Vancouver","edit_url":"https:\/\/docs.google.com\/spreadsheets\/d\/12PLbLuD88yY0CuMyjCOu56uNOBr-DyRd8630ses5PJQ\/edit#gid=0&range=297:297"},{"name":"Women's Daily Supplement","day":1,"time":"08:00","end_time":"09:00","district":"District 25","location":"Zoom","formatted_address":"Vancouver, WA, USA","regions":["Vancouver"],"types":["O","W"],"notes":"Zoom ID: 89937960058","conference_url":"https:\/\/zoom.us\/j\/89937960058","coordinates":"45.69769,-122.46457,45.57858,-122.77335","slug":"womens-daily-supplement-2","updated":"2024-01-11","region":"Vancouver","edit_url":"https:\/\/docs.google.com\/spreadsheets\/d\/12PLbLuD88yY0CuMyjCOu56uNOBr-DyRd8630ses5PJQ\/edit#gid=0&range=298:298"},{"name":"Women's Daily Supplement","day":2,"time":"08:00","end_time":"09:00","district":"District 25","location":"Zoom","formatted_address":"Vancouver, WA, USA","regions":["Vancouver"],"types":["O","W"],"notes":"Zoom ID: 89937960058","conference_url":"https:\/\/zoom.us\/j\/89937960058","coordinates":"45.69769,-122.46457,45.57858,-122.77335","slug":"womens-daily-supplement-3","updated":"2024-01-11","region":"Vancouver","edit_url":"https:\/\/docs.google.com\/spreadsheets\/d\/12PLbLuD88yY0CuMyjCOu56uNOBr-DyRd8630ses5PJQ\/edit#gid=0&range=299:299"},{"name":"Women's Daily Supplement","day":3,"time":"08:00","end_time":"09:00","district":"District 25","location":"Zoom","formatted_address":"Vancouver, WA, USA","regions":["Vancouver"],"types":["O","W"],"notes":"Zoom ID: 89937960058","conference_url":"https:\/\/zoom.us\/j\/89937960058","coordinates":"45.69769,-122.46457,45.57858,-122.77335","slug":"womens-daily-supplement-4","updated":"2024-01-11","region":"Vancouver","edit_url":"https:\/\/docs.google.com\/spreadsheets\/d\/12PLbLuD88yY0CuMyjCOu56uNOBr-DyRd8630ses5PJQ\/edit#gid=0&range=300:300"},{"name":"Women's Daily Supplement","day":4,"time":"08:00","end_time":"09:00","district":"District 25","location":"Zoom","formatted_address":"Vancouver, WA, USA","regions":["Vancouver"],"types":["O","W"],"notes":"Zoom ID: 89937960058","conference_url":"https:\/\/zoom.us\/j\/89937960058","coordinates":"45.69769,-122.46457,45.57858,-122.77335","slug":"womens-daily-supplement-5","updated":"2024-01-11","region":"Vancouver","edit_url":"https:\/\/docs.google.com\/spreadsheets\/d\/12PLbLuD88yY0CuMyjCOu56uNOBr-DyRd8630ses5PJQ\/edit#gid=0&range=301:301"},{"name":"Women's Daily Supplement","day":5,"time":"08:00","end_time":"09:00","district":"District 25","location":"Zoom","formatted_address":"Vancouver, WA, USA","regions":["Vancouver"],"types":["O","W"],"notes":"Zoom ID: 89937960058","conference_url":"https:\/\/zoom.us\/j\/89937960058","coordinates":"45.69769,-122.46457,45.57858,-122.77335","slug":"womens-daily-supplement-6","updated":"2024-01-11","region":"Vancouver","edit_url":"https:\/\/docs.google.com\/spreadsheets\/d\/12PLbLuD88yY0CuMyjCOu56uNOBr-DyRd8630ses5PJQ\/edit#gid=0&range=302:302"},{"name":"Women's Daily Supplement","day":6,"time":"09:00","end_time":"10:00","district":"District 25","location":"Zoom","formatted_address":"Vancouver, WA, USA","regions":["Vancouver"],"types":["O","W"],"notes":"Zoom ID: 89937960058","conference_url":"https:\/\/zoom.us\/j\/89937960058","coordinates":"45.69769,-122.46457,45.57858,-122.77335","slug":"womens-daily-supplement-7","updated":"2024-01-11","region":"Vancouver","edit_url":"https:\/\/docs.google.com\/spreadsheets\/d\/12PLbLuD88yY0CuMyjCOu56uNOBr-DyRd8630ses5PJQ\/edit#gid=0&range=303:303"},{"name":"Women's Early Risers","day":0,"time":"05:30","end_time":"06:30","district":"District 25","location":"Zoom","formatted_address":"Seattle, WA, USA","regions":["Seattle"],"types":["EN","O","W"],"notes":"Meeting ID: 693 062 1667, Passcode: ea$yDoesIt  (that's a capital \"i\")","conference_url":"https:\/\/us02web.zoom.us\/j\/6930621667?pwd=QjlJS2dKVXRxOE1IVmRaVFlodVJ6Zz09","coordinates":"47.73417,-122.22443,47.49191,-122.4597","slug":"werisers-7","updated":"2023-12-21","region":"Seattle","edit_url":"https:\/\/docs.google.com\/spreadsheets\/d\/12PLbLuD88yY0CuMyjCOu56uNOBr-DyRd8630ses5PJQ\/edit#gid=0&range=304:304"},{"name":"Women's Early Risers","day":1,"time":"05:30","end_time":"06:30","district":"District 25","location":"Zoom","formatted_address":"Seattle, WA, USA","regions":["Seattle"],"types":["EN","O","W"],"notes":"Meeting ID: 693 062 1667, Passcode: ea$yDoesIt  (that's a capital \"i\")","conference_url":"https:\/\/us02web.zoom.us\/j\/6930621667?pwd=QjlJS2dKVXRxOE1IVmRaVFlodVJ6Zz09","coordinates":"47.73417,-122.22443,47.49191,-122.4597","slug":"werisers-1","updated":"2023-12-21","region":"Seattle","edit_url":"https:\/\/docs.google.com\/spreadsheets\/d\/12PLbLuD88yY0CuMyjCOu56uNOBr-DyRd8630ses5PJQ\/edit#gid=0&range=305:305"},{"name":"Women's Early Risers","day":2,"time":"05:30","end_time":"06:30","district":"District 25","location":"Zoom","formatted_address":"Seattle, WA, USA","regions":["Seattle"],"types":["EN","O","W"],"notes":"Meeting ID: 693 062 1667, Passcode: ea$yDoesIt  (that's a capital \"i\")","conference_url":"https:\/\/us02web.zoom.us\/j\/6930621667?pwd=QjlJS2dKVXRxOE1IVmRaVFlodVJ6Zz09","coordinates":"47.73417,-122.22443,47.49191,-122.4597","slug":"werisers-2","updated":"2023-12-21","region":"Seattle","edit_url":"https:\/\/docs.google.com\/spreadsheets\/d\/12PLbLuD88yY0CuMyjCOu56uNOBr-DyRd8630ses5PJQ\/edit#gid=0&range=306:306"},{"name":"Women's Early Risers","day":3,"time":"05:30","end_time":"06:30","district":"District 25","location":"Zoom","formatted_address":"Seattle, WA, USA","regions":["Seattle"],"types":["EN","O","W"],"notes":"Meeting ID: 693 062 1667, Passcode: ea$yDoesIt  (that's a capital \"i\")","conference_url":"https:\/\/us02web.zoom.us\/j\/6930621667?pwd=QjlJS2dKVXRxOE1IVmRaVFlodVJ6Zz09","coordinates":"47.73417,-122.22443,47.49191,-122.4597","slug":"werisers-3","updated":"2023-12-21","region":"Seattle","edit_url":"https:\/\/docs.google.com\/spreadsheets\/d\/12PLbLuD88yY0CuMyjCOu56uNOBr-DyRd8630ses5PJQ\/edit#gid=0&range=307:307"},{"name":"Women's Early Risers","day":4,"time":"05:30","end_time":"06:30","district":"District 25","location":"Zoom","formatted_address":"Seattle, WA, USA","regions":["Seattle"],"types":["EN","O","W"],"notes":"Meeting ID: 693 062 1667, Passcode: ea$yDoesIt  (that's a capital \"i\")","conference_url":"https:\/\/us02web.zoom.us\/j\/6930621667?pwd=QjlJS2dKVXRxOE1IVmRaVFlodVJ6Zz09","coordinates":"47.73417,-122.22443,47.49191,-122.4597","slug":"werisers-4","updated":"2023-12-21","region":"Seattle","edit_url":"https:\/\/docs.google.com\/spreadsheets\/d\/12PLbLuD88yY0CuMyjCOu56uNOBr-DyRd8630ses5PJQ\/edit#gid=0&range=308:308"},{"name":"Women's Early Risers","day":5,"time":"05:30","end_time":"06:30","district":"District 25","location":"Zoom","formatted_address":"Seattle, WA, USA","regions":["Seattle"],"types":["EN","O","W"],"notes":"Meeting ID: 693 062 1667, Passcode: ea$yDoesIt  (that's a capital \"i\")","conference_url":"https:\/\/us02web.zoom.us\/j\/6930621667?pwd=QjlJS2dKVXRxOE1IVmRaVFlodVJ6Zz09","coordinates":"47.73417,-122.22443,47.49191,-122.4597","slug":"werisers-5","updated":"2023-12-21","region":"Seattle","edit_url":"https:\/\/docs.google.com\/spreadsheets\/d\/12PLbLuD88yY0CuMyjCOu56uNOBr-DyRd8630ses5PJQ\/edit#gid=0&range=309:309"},{"name":"Women's Early Risers","day":6,"time":"05:30","end_time":"06:30","district":"District 25","location":"Zoom","formatted_address":"Seattle, WA, USA","regions":["Seattle"],"types":["EN","O","W"],"notes":"Meeting ID: 693 062 1667, Passcode: ea$yDoesIt  (that's a capital \"i\")","conference_url":"https:\/\/us02web.zoom.us\/j\/6930621667?pwd=QjlJS2dKVXRxOE1IVmRaVFlodVJ6Zz09","coordinates":"47.73417,-122.22443,47.49191,-122.4597","slug":"werisers-6","updated":"2023-12-21","region":"Seattle","edit_url":"https:\/\/docs.google.com\/spreadsheets\/d\/12PLbLuD88yY0CuMyjCOu56uNOBr-DyRd8630ses5PJQ\/edit#gid=0&range=310:310"},{"name":"Zoom Oasis","day":4,"time":"10:00","end_time":"11:00","district":"District 25","location":"Zoom","formatted_address":"Olympia, WA, USA","regions":["Olympia"],"types":["O"],"notes":"Meeting ID: 542 311 923, Passcode: 62747","conference_url":"https:\/\/zoom.us\/j\/542311923","coordinates":"47.07809,-122.82314,47.00058,-122.9646","slug":"zoom-oasis-2","updated":"2026-02-23","region":"Olympia","edit_url":"https:\/\/docs.google.com\/spreadsheets\/d\/12PLbLuD88yY0CuMyjCOu56uNOBr-DyRd8630ses5PJQ\/edit#gid=0&range=311:311"}]
